msg_type,mass,time,ax,ay,az,ax_local,ay_local,az_local,pitch,roll,yaw,vx,vy,vz,vx_local,vy_local,vz_local,x,y,z,qw,qx,qy,qz,apogee,baro_altitude,altitude,baro_pressure,baro_temperature,air_pressure,air_density,air_temperature,drag_coefficient
138,0.4169999957084656,0.0,6.912692070007324,3.760254383087158,-4.261064052581787,8.345989227294922,-1.2062910795211792,-2.9948959350585938,0.8646181225776672,-2.8351805210113525,0.46683868765830994,0.0,0.0,0.0,0.0,0.0,0.0,0.0,0.0,0.0,0.039033714681863785,-0.8878130912780762,-0.1453598588705063,0.43488624691963196,0.0,25073.4375,0.0,1002.9375,25.5625,3.354608355988929e-20,6.31432058195428e-35,-1.9694252699706225e+24,0.0,-1.9895584755341426e+37
138,0.4169999957084656,0.0,7.223627090454102,2.7695226669311523,-3.966015338897705,8.214601516723633,0.13994216918945312,-2.842496871948242,0.7905851602554321,-2.8295769691467285,0.4964883327484131,0.0,0.0,0.0,0.0,0.0,0.0,0.0,0.0,0.0,0.04553107172250748,-0.8984243273735046,-0.16600152850151062,0.4039747416973114,0.0,25073.4375,0.0,1002.9375,25.5625,-1.9705779552459717,6.179893262449391e-38,-0.0057942504063248634,0.0,2.0355675719598315e-20
138,0.4169999957084656,0.0,7.139668941497803,3.365798234939575,-3.8279995918273926,8.31912899017334,-0.46040233969688416,-2.7451510429382324,0.7725709676742554,-2.854167938232422,0.4831937849521637,0.0,0.0,0.0,0.0,0.0,0.0,0.0,0.0,0.0,0.039601270109415054,-0.9030444025993347,-0.16694730520248413,0.39377981424331665,0.0,25073.4375,0.0,1002.9375,25.5625,-1.9296130394952615e+34,-8.109383489105384e+37,-8.961248592947915e-16,0.0,4.531819456454457e+25
138,0.4169999957084656,0.0,6.746743202209473,2.8126068115234375,-3.0957422256469727,7.404567718505859,-0.3358621597290039,-2.84102463722229,0.7660331726074219,-2.8715336322784424,0.4544219672679901,0.0,0.0,0.0,0.0,0.0,0.0,0.0,0.0,0.0,0.03823643550276756,-0.9068038463592529,-0.15801861882209778,0.3889298141002655,0.0,25073.4375,0.0,1002.9375,25.5625,1.7827547164200874e-13,nan,2.512381248477428e-15,0.0,4.854334959406084e-25
138,0.4169999957084656,0.0,6.767760276794434,2.956166982650757,-3.1844115257263184,7.573530197143555,-0.3367231786251068,-2.6849844455718994,0.747414767742157,-2.871295928955078,0.46498796343803406,0.0,0.0,0.0,0.0,0.0,0.0,0.0,0.0,0.0,0.03871478885412216,-0.9089993834495544,-0.1646801084280014,0.3809111416339874,0.0,-0.3125,0.0,2621.427490234375,25.5625,3.354608355988929e-20,6.31432058195428e-35,-1.9694252699706225e+24,0.0,-1.9895584755341426e+37
138,0.4169999957084656,0.0,6.136397838592529,3.166168212890625,-3.137798309326172,7.2500457763671875,-0.5958539247512817,-2.1462948322296143,0.7245968580245972,-2.8709681034088135,0.4762813448905945,0.0,0.0,0.0,0.0,0.0,0.0,0.0,0.0,0.0,0.03973834961652756,-0.9116622805595398,-0.172102689743042,0.3710319995880127,0.0,-0.3125,0.0,2621.427490234375,25.5625,-1.9705779552459717,6.179893262449391e-38,-0.0057942504063248634,0.0,2.0355675719598315e-20
138,0.4169999957084656,0.0,6.422854423522949,3.119983673095703,-2.812398910522461,7.244382381439209,-0.42509523034095764,-2.4968278408050537,0.7102059125900269,-2.873638153076172,0.48737069964408875,0.0,0.0,0.0,0.0,0.0,0.0,0.0,0.0,0.0,0.03840326890349388,-0.9129558801651001,-0.1791277676820755,0.36461132764816284,0.0,-0.3125,0.0,2621.427490234375,25.5625,-1.9296130394952615e+34,-8.109383489105384e+37,-8.961248592947915e-16,0.0,4.531819456454457e+25
138,0.4169999957084656,0.0,6.454392910003662,2.9964661598205566,-2.4326963424682617,7.0096025466918945,-0.2562202215194702,-2.711986541748047,0.695114254951477,-2.8637194633483887,0.5046178698539734,0.0,0.0,0.0,0.0,0.0,0.0,0.0,0.0,0.0,0.041876863688230515,-0.9134367108345032,-0.18677404522895813,0.3591470420360565,0.0,-0.3125,0.0,2621.427490234375,25.5625,1.7827547164200874e-13,nan,2.512381248477428e-15,0.0,4.854334959406084e-25
138,0.4169999957084656,0.0,6.135590076446533,3.229644775390625,-2.5024209022521973,6.96943473815918,-0.3563591241836548,-2.3742904663085938,0.6756078600883484,-2.8564507961273193,0.5315477848052979,0.0,0.0,0.0,0.0,0.0,0.0,0.0,0.0,0.0,0.04318500682711601,-0.9134858250617981,-0.1998591274023056,0.351747989654541,0.0,-0.1875,0.0,2621.4326171875,25.5625,3.354608355988929e-20,6.31432058195428e-35,-1.9694252699706225e+24,0.0,-1.9895584755341426e+37
138,0.4169999957084656,0.0,5.9408416748046875,3.2381718158721924,-2.358722686767578,6.794994354248047,-0.38254910707473755,-2.2413740158081055,0.6566746234893799,-2.8604397773742676,0.5366542935371399,0.0,0.0,0.0,0.0,0.0,0.0,0.0,0.0,0.0,0.04323241114616394,-0.915677547454834,-0.20491330325603485,0.3430269956588745,0.0,-0.1875,0.0,2621.4326171875,25.5625,-1.9705779552459717,6.179893262449391e-38,-0.0057942504063248634,0.0,2.0355675719598315e-20
138,0.4169999957084656,0.0,5.445576190948486,2.923758029937744,-3.080343246459961,6.807345867156982,0.04345381632447243,-1.161258339881897,0.6244098544120789,-2.874476194381714,0.5491368770599365,0.0,0.0,0.0,0.0,0.0,0.0,0.0,0.0,0.0,0.039437972009181976,-0.9189390540122986,-0.21635577082633972,0.32737961411476135,0.0,-0.1875,0.0,2621.4326171875,25.5625,-1.9296130394952615e+34,-8.109383489105384e+37,-8.961248592947915e-16,0.0,4.531819456454457e+25
138,0.4169999957084656,0.0,6.228057384490967,2.724301338195801,-0.8380728363990784,6.384189128875732,0.1603236049413681,-2.4755842685699463,0.4780023992061615,-2.8977744579315186,0.5233772993087769,0.0,0.0,0.0,0.0,0.0,0.0,0.0,0.0,0.0,0.05333634838461876,-0.9389753937721252,-0.22168304026126862,0.2575434446334839,0.0,-0.1875,0.0,2621.4326171875,25.5625,1.7827547164200874e-13,nan,2.512381248477428e-15,0.0,4.854334959406084e-25
138,0.4169999957084656,0.0,5.629306793212891,3.1020312309265137,-2.3839120864868164,6.8267903327941895,-0.05533003434538841,0.6211270689964294,0.268669456243515,-2.9158647060394287,0.473625510931015,0.0,0.0,0.0,0.0,0.0,0.0,0.0,0.0,0.0,0.07727321982383728,-0.9607382416725159,-0.21634866297245026,0.1555495411157608,0.0,-0.25,0.0,2621.429931640625,25.5625,3.354608355988929e-20,6.31432058195428e-35,-1.9694252699706225e+24,0.0,-1.9895584755341426e+37
138,0.4169999957084656,0.0,3.8858041763305664,1.459825038909912,0.4703225791454315,4.1659016609191895,-0.1265898048877716,-0.2840881943702698,-0.040087055414915085,-2.94111704826355,0.34311020374298096,0.0,0.0,0.0,0.0,0.0,0.0,0.0,0.0,0.0,0.10198511183261871,-0.9798310399055481,-0.17179924249649048,-0.0025690088514238596,0.0,-0.25,0.0,2621.429931640625,25.5625,-1.9705779552459717,6.179893262449391e-38,-0.0057942504063248634,0.0,2.0355675719598315e-20
138,0.4169999957084656,0.0,5.368462085723877,3.4843082427978516,-1.9350991249084473,6.167384624481201,-0.7852415442466736,2.459958076477051,-0.05049331113696098,-2.9370903968811035,0.37617942690849304,0.0,0.0,0.0,0.0,0.0,0.0,0.0,0.0,0.0,0.10493594408035278,-0.9764348268508911,-0.18847724795341492,-0.00558960996568203,0.0,-0.25,0.0,2621.429931640625,25.5625,-1.9296130394952615e+34,-8.109383489105384e+37,-8.961248592947915e-16,0.0,4.531819456454457e+25
138,0.4169999957084656,0.0,4.920727729797363,2.6439154148101807,-1.4577198028564453,5.151731014251709,-0.17876724898815155,2.5992159843444824,-0.19504450261592865,-2.9299211502075195,0.36363351345062256,0.0,0.0,0.0,0.0,0.0,0.0,0.0,0.0,0.0,0.12091013789176941,-0.9715024828910828,-0.1890660673379898,-0.07621709257364273,0.0,-0.0625,0.0,2621.4375,25.5625,1.7827547164200874e-13,nan,2.512381248477428e-15,0.0,4.854334959406084e-25
138,0.4169999957084656,0.0,4.804078578948975,3.5503551959991455,-2.110586166381836,4.449667453765869,-0.7058516144752502,4.454247951507568,-0.4079969823360443,-2.939993143081665,0.3681584894657135,0.0,0.0,0.0,0.0,0.0,0.0,0.0,0.0,0.0,0.1337709277868271,-0.9540972113609314,-0.19837705790996552,-0.18011653423309326,0.0,-0.0625,0.0,2621.4375,25.5625,3.354608355988929e-20,6.31432058195428e-35,-1.9694252699706225e+24,0.0,-1.9895584755341426e+37
138,0.4169999957084656,0.0,4.419218063354492,2.9289727210998535,-0.4995098412036896,3.6938304901123047,-0.5273013710975647,3.7993364334106445,-0.6864829063415527,-2.986889123916626,0.3750676214694977,0.0,0.0,0.0,0.0,0.0,0.0,0.0,0.0,0.0,0.13404719531536102,-0.9175384044647217,-0.20058579742908478,-0.3160874843597412,0.0,-0.0625,0.0,2621.4375,25.5625,-1.9705779552459717,6.179893262449391e-38,-0.0057942504063248634,0.0,2.0355675719598315e-20
138,0.4169999957084656,0.0,5.514237880706787,4.118569374084473,-1.6634893417358398,3.2172627449035645,-0.8303923606872559,6.252635955810547,-0.8391745090484619,-3.0002856254577637,0.39151784777641296,0.0,0.0,0.0,0.0,0.0,0.0,0.0,0.0,0.0,0.14228272438049316,-0.8879796862602234,-0.20540428161621094,-0.3860679268836975,0.0,-0.0625,0.0,2621.4375,25.5625,-1.9296130394952615e+34,-8.109383489105384e+37,-8.961248592947915e-16,0.0,4.531819456454457e+25
138,0.4169999957084656,0.0,4.135326385498047,3.2713687419891357,-1.2789793014526367,1.5443105697631836,-0.7123067378997803,5.1522603034973145,-1.0140600204467773,-2.937910795211792,0.33302542567253113,0.0,0.0,0.0,0.0,0.0,0.0,0.0,0.0,0.0,0.16771091520786285,-0.849443256855011,-0.1928246170282364,-0.4616592228412628,0.0,-0.3125,0.0,2621.427490234375,25.5625,1.7827547164200874e-13,nan,2.512381248477428e-15,0.0,4.854334959406084e-25
138,0.4169999957084656,0.0,3.805795907974243,3.2457022666931152,-1.5290021896362305,0.5161308646202087,-0.7765562534332275,5.146515846252441,-1.1380431652069092,-2.87654185295105,0.27338531613349915,0.0,0.0,0.0,0.0,0.0,0.0,0.0,0.0,0.0,0.1830560714006424,-0.8175422549247742,-0.18432128429412842,-0.5139381885528564,0.0,-0.3125,0.0,2621.427490234375,25.5625,3.354608355988929e-20,6.31432058195428e-35,-1.9694252699706225e+24,0.0,-1.9895584755341426e+37
138,0.4169999957084656,0.0,3.9751956462860107,2.864907741546631,-1.171015739440918,0.15945380926132202,-0.23607143759727478,5.029867172241211,-1.2704883813858032,-2.7117345333099365,0.1333916336297989,0.0,0.0,0.0,0.0,0.0,0.0,0.0,0.0,0.0,0.20992600917816162,-0.7762124538421631,-0.1786845624446869,-0.566999614238739,0.0,-0.3125,0.0,2621.427490234375,25.5625,-1.9705779552459717,6.179893262449391e-38,-0.0057942504063248634,0.0,2.0355675719598315e-20
138,0.4169999957084656,0.0,4.0558037757873535,3.553715229034424,-1.6925554275512695,-0.8492653965950012,-0.5720838904380798,5.558246612548828,-1.3588608503341675,-2.4971890449523926,-0.061520401388406754,0.0,0.0,0.0,0.0,0.0,0.0,0.0,0.0,0.0,0.22788383066654205,-0.7436543703079224,-0.17618677020072937,-0.6033215522766113,0.0,-0.3125,0.0,2621.427490234375,25.5625,-1.9296130394952615e+34,-8.109383489105384e+37,-8.961248592947915e-16,0.0,4.531819456454457e+25
138,0.4169999957084656,0.0,4.156343460083008,3.5056674480438232,-1.6636695861816406,-1.7373889684677124,-0.3346984386444092,5.403850078582764,-1.4284584522247314,-1.5594143867492676,-0.9878249168395996,0.0,0.0,0.0,0.0,0.0,0.0,0.0,0.0,0.0,0.2547532021999359,-0.6885685920715332,-0.15831008553504944,-0.6602298617362976,0.0,-0.4375,0.0,2621.422607421875,25.5625,1.7827547164200874e-13,nan,2.512381248477428e-15,0.0,4.854334959406084e-25
138,0.4169999957084656,0.0,4.538783550262451,3.8709094524383545,-1.4316320419311523,-2.1966965198516846,-0.36391863226890564,5.716249942779541,-1.3917298316955566,-0.8367310762405396,-1.700426697731018,0.0,0.0,0.0,0.0,0.0,0.0,0.0,0.0,0.0,0.2670235335826874,-0.6458988189697266,-0.15221309661865234,-0.6988102793693542,0.0,-0.4375,0.0,2621.422607421875,25.5625,3.354608355988929e-20,6.31432058195428e-35,-1.9694252699706225e+24,0.0,-1.9895584755341426e+37
138,0.4169999957084656,0.0,4.035550594329834,3.5694055557250977,-1.5961017608642578,-2.714259624481201,-0.25878432393074036,4.913160800933838,-1.328902244567871,-0.5436078906059265,-1.9722849130630493,0.0,0.0,0.0,0.0,0.0,0.0,0.0,0.0,0.0,0.2804846167564392,-0.6119852066040039,-0.15158939361572266,-0.7237503528594971,0.0,-0.4375,0.0,2621.422607421875,25.5625,-1.9705779552459717,6.179893262449391e-38,-0.0057942504063248634,0.0,2.0355675719598315e-20
138,0.4169999957084656,0.0,3.4668033123016357,3.3544881343841553,-1.5731687545776367,-3.0163745880126953,-0.2904210388660431,4.069750785827637,-1.2407268285751343,-0.3235926628112793,-2.159876585006714,0.0,0.0,0.0,0.0,0.0,0.0,0.0,0.0,0.0,0.2959429919719696,-0.5677886605262756,-0.15485697984695435,-0.7523592710494995,0.0,-0.5625,0.0,2621.41748046875,25.5625,-1.9296130394952615e+34,-8.109383489105384e+37,-8.961248592947915e-16,0.0,4.531819456454457e+25
138,0.4169999957084656,0.0,3.8660168647766113,3.2790517807006836,-1.1523876190185547,-3.243704080581665,0.14329516887664795,4.060007095336914,-1.1104921102523804,-0.2027052342891693,-2.2480921745300293,0.0,0.0,0.0,0.0,0.0,0.0,0.0,0.0,0.0,0.3171423077583313,-0.5101260542869568,-0.14904272556304932,-0.7854743599891663,0.0,-0.5625,0.0,2621.41748046875,25.5625,1.7827547164200874e-13,nan,2.512381248477428e-15,0.0,4.854334959406084e-25
138,0.4169999957084656,0.0,3.626333713531494,3.4526596069335938,-1.9274978637695312,-4.291156768798828,0.08021613955497742,3.219541311264038,-1.0056889057159424,-0.1555940806865692,-2.2649943828582764,0.0,0.0,0.0,0.0,0.0,0.0,0.0,0.0,0.0,0.336823970079422,-0.4639505445957184,-0.14224904775619507,-0.8068804740905762,0.0,-0.5625,0.0,2621.41748046875,25.5625,3.354608355988929e-20,6.31432058195428e-35,-1.9694252699706225e+24,0.0,-1.9895584755341426e+37
138,0.4169999957084656,0.0,4.136421203613281,3.5882833003997803,-1.4236936569213867,-4.484190464019775,0.41776955127716064,3.4248526096343994,-0.8980709910392761,-0.1276678591966629,-2.27109956741333,0.0,0.0,0.0,0.0,0.0,0.0,0.0,0.0,0.0,0.3539498448371887,-0.4170551598072052,-0.13054990768432617,-0.8268812298774719,0.0,-0.5625,0.0,2621.41748046875,25.5625,-1.9705779552459717,6.179893262449391e-38,-0.0057942504063248634,0.0,2.0355675719598315e-20
138,0.4169999957084656,0.0,3.792233467102051,3.356703519821167,-1.645024299621582,-4.7015910148620605,0.4278843104839325,2.462939739227295,-0.7880972623825073,-0.11945006996393204,-2.274721384048462,0.0,0.0,0.0,0.0,0.0,0.0,0.0,0.0,0.0,0.3663126230239868,-0.37095576524734497,-0.11094248294830322,-0.8461028933525085,0.0,-0.1875,0.0,2621.4326171875,25.5625,-1.9296130394952615e+34,-8.109383489105384e+37,-8.961248592947915e-16,0.0,4.531819456454457e+25
138,0.4169999957084656,0.0,4.124582290649414,3.9728071689605713,-1.6578712463378906,-5.369289875030518,0.35628047585487366,2.5665359497070312,-0.7216588854789734,-0.10237687081098557,-2.267035961151123,0.0,0.0,0.0,0.0,0.0,0.0,0.0,0.0,0.0,0.3793196678161621,-0.3396860659122467,-0.10594653338193893,-0.8541058897972107,0.0,-0.1875,0.0,2621.4326171875,25.5625,1.7827547164200874e-13,nan,2.512381248477428e-15,0.0,4.854334959406084e-25
138,0.4169999957084656,0.0,4.117036819458008,3.7814252376556396,-1.0331907272338867,-4.882554054260254,0.4810466170310974,2.8714749813079834,-0.7053601741790771,-0.1109912097454071,-2.2557525634765625,0.0,0.0,0.0,0.0,0.0,0.0,0.0,0.0,0.0,0.38426873087882996,-0.3339132070541382,-0.1007804125547409,-0.8547949194908142,0.0,-0.1875,0.0,2621.4326171875,25.5625,3.354608355988929e-20,6.31432058195428e-35,-1.9694252699706225e+24,0.0,-1.9895584755341426e+37
138,0.4169999957084656,0.0,2.9030067920684814,3.3756701946258545,-2.101634979248047,-4.77381706237793,0.047488968819379807,1.2031062841415405,-0.6851661801338196,-0.1278231292963028,-2.236013650894165,0.0,0.0,0.0,0.0,0.0,0.0,0.0,0.0,0.0,0.3919175863265991,-0.32777243852615356,-0.0925637036561966,-0.8546280264854431,0.0,-0.1875,0.0,2621.4326171875,25.5625,-1.9705779552459717,6.179893262449391e-38,-0.0057942504063248634,0.0,2.0355675719598315e-20
138,0.4169999957084656,0.0,2.8719429969787598,2.891399383544922,-1.7093935012817383,-4.221996784210205,0.3071461021900177,1.2689932584762573,-0.6824489831924438,-0.10772218555212021,-2.2441954612731934,0.0,0.0,0.0,0.0,0.0,0.0,0.0,0.0,0.0,0.3919559717178345,-0.32308703660964966,-0.09924617409706116,-0.8556442260742188,0.0,-0.3125,0.0,2621.427490234375,25.5625,-1.9296130394952615e+34,-8.109383489105384e+37,-8.961248592947915e-16,0.0,4.531819456454457e+25
138,0.4169999957084656,0.0,4.0318522453308105,4.102051258087158,0.18759627640247345,-4.251830101013184,0.3647054433822632,3.8608551025390625,-0.6958979964256287,-0.11182882636785507,-2.2092018127441406,0.0,0.0,0.0,0.0,0.0,0.0,0.0,0.0,0.0,0.4048701822757721,-0.3277239203453064,-0.10609486699104309,-0.8470019698143005,0.0,-0.3125,0.0,2621.427490234375,25.5625,1.7827547164200874e-13,nan,2.512381248477428e-15,0.0,4.854334959406084e-25
138,0.4169999957084656,0.0,3.2410526275634766,3.455366849899292,-1.7852048873901367,-4.78882360458374,0.4703667163848877,1.5736660957336426,-0.6683220863342285,-0.11942213773727417,-2.185603618621826,0.0,0.0,0.0,0.0,0.0,0.0,0.0,0.0,0.0,0.41639941930770874,-0.31663161516189575,-0.10054514557123184,-0.8463084697723389,0.0,-0.3125,0.0,2621.427490234375,25.5625,3.354608355988929e-20,6.31432058195428e-35,-1.9694252699706225e+24,0.0,-1.9895584755341426e+37
138,0.4169999957084656,0.0,2.5272462368011475,2.990811347961426,-0.9919319748878479,-3.6097097396850586,0.2016880363225937,1.8013581037521362,-0.704092264175415,-0.11966762691736221,-2.1661200523376465,0.0,0.0,0.0,0.0,0.0,0.0,0.0,0.0,0.0,0.42088109254837036,-0.33037269115448,-0.11171815544366837,-0.8373908400535583,0.0,-0.3125,0.0,2621.427490234375,25.5625,-1.9705779552459717,6.179893262449391e-38,-0.0057942504063248634,0.0,2.0355675719598315e-20
138,0.4169999957084656,0.0,4.062747478485107,3.926401376724243,-0.6104136109352112,-4.695516109466553,0.8843097686767578,3.0764787197113037,-0.6711293458938599,-0.11937376856803894,-2.1511898040771484,0.0,0.0,0.0,0.0,0.0,0.0,0.0,0.0,0.0,0.43061867356300354,-0.31599560379981995,-0.10665161162614822,-0.8386484384536743,0.0,0.0625,0.0,0.0024999999441206455,25.5625,-1.9296130394952615e+34,-8.109383489105384e+37,-8.961248592947915e-16,0.0,4.531819456454457e+25
138,0.4169999957084656,0.0,3.033830404281616,3.0257487297058105,-1.8721961975097656,-4.529810905456543,0.7749096751213074,0.8627630472183228,-0.5814296007156372,-0.15056414902210236,-2.146965503692627,0.0,0.0,0.0,0.0,0.0,0.0,0.0,0.0,0.0,0.4368044137954712,-0.2855786085128784,-0.07303173094987869,-0.849885106086731,0.0,0.0625,0.0,0.0024999999441206455,25.5625,1.7827547164200874e-13,nan,2.512381248477428e-15,0.0,4.854334959406084e-25
138,0.4169999957084656,0.0,3.2976949214935303,3.3161277770996094,-1.5406789779663086,-4.723550796508789,0.791392982006073,1.1430402994155884,-0.5330359935760498,-0.16440938413143158,-2.144958019256592,0.0,0.0,0.0,0.0,0.0,0.0,0.0,0.0,0.0,0.4405180811882019,-0.26842400431632996,-0.055875152349472046,-0.8548461198806763,0.0,0.0625,0.0,0.0024999999441206455,25.5625,3.354608355988929e-20,6.31432058195428e-35,-1.9694252699706225e+24,0.0,-1.9895584755341426e+37
138,0.4169999957084656,0.0,3.5021677017211914,3.436211109161377,-0.9294033646583557,-4.618237495422363,0.8161212205886841,1.7152031660079956,-0.5163702964782715,-0.16918163001537323,-2.140986919403076,0.0,0.0,0.0,0.0,0.0,0.0,0.0,0.0,0.0,0.4432026743888855,-0.2624184191226959,-0.05036336928606033,-0.8556652069091797,0.0,-0.1875,0.0,2621.4326171875,25.5625,-1.9705779552459717,6.179893262449391e-38,-0.0057942504063248634,0.0,2.0355675719598315e-20
138,0.4169999957084656,0.0,3.2346444129943848,3.2811052799224854,-1.510610580444336,-4.6831583976745605,0.8036340475082397,0.9655605554580688,-0.49628475308418274,-0.1675100475549698,-2.140636920928955,0.0,0.0,0.0,0.0,0.0,0.0,0.0,0.0,0.0,0.44548794627189636,-0.2536396086215973,-0.04629073292016983,-0.8573539853096008,0.0,-0.1875,0.0,2621.4326171875,25.5625,-1.9296130394952615e+34,-8.109383489105384e+37,-8.961248592947915e-16,0.0,4.531819456454457e+25
138,0.4169999957084656,0.0,3.2210628986358643,3.6457700729370117,-0.8568134903907776,-4.671115875244141,0.5005892515182495,1.5266575813293457,-0.47252312302589417,-0.16272422671318054,-2.1414473056793213,0.0,0.0,0.0,0.0,0.0,0.0,0.0,0.0,0.0,0.44793063402175903,-0.24261529743671417,-0.042524419724941254,-0.8594644069671631,0.0,-0.1875,0.0,2621.4326171875,25.5625,1.7827547164200874e-13,nan,2.512381248477428e-15,0.0,4.854334959406084e-25
138,0.4169999957084656,0.0,2.997161865234375,3.4450266361236572,-1.204549789428711,-4.587957382202148,0.5062976479530334,0.9980201125144958,-0.4548281133174896,-0.1627628356218338,-2.1414449214935303,0.0,0.0,0.0,0.0,0.0,0.0,0.0,0.0,0.0,0.44951269030570984,-0.23517173528671265,-0.038247957825660706,-0.8609070181846619,0.0,-0.1875,0.0,2621.4326171875,25.5625,3.354608355988929e-20,6.31432058195428e-35,-1.9694252699706225e+24,0.0,-1.9895584755341426e+37
138,0.4169999957084656,0.0,3.270601749420166,3.216808319091797,-1.0251884460449219,-4.483835220336914,0.8599280118942261,1.1185120344161987,-0.4373491704463959,-0.1624322086572647,-2.138141393661499,0.0,0.0,0.0,0.0,0.0,0.0,0.0,0.0,0.0,0.4525059163570404,-0.22766117751598358,-0.034555502235889435,-0.8615138530731201,0.0,-0.1875,0.0,2621.4326171875,25.5625,-1.9705779552459717,6.179893262449391e-38,-0.0057942504063248634,0.0,2.0355675719598315e-20
138,0.4169999957084656,0.0,3.085336446762085,3.3200788497924805,-0.9844980835914612,-4.463447570800781,0.6778634190559387,1.0626533031463623,-0.42456570267677307,-0.16443778574466705,-2.132549524307251,0.0,0.0,0.0,0.0,0.0,0.0,0.0,0.0,0.0,0.45579177141189575,-0.2226264625787735,-0.031222917139530182,-0.8612246513366699,0.0,-0.1875,0.0,2621.4326171875,25.5625,-1.9296130394952615e+34,-8.109383489105384e+37,-8.961248592947915e-16,0.0,4.531819456454457e+25
138,0.4169999957084656,0.0,2.6152217388153076,3.1181421279907227,-1.5994749069213867,-4.332923412322998,0.5378566384315491,0.23805472254753113,-0.411581426858902,-0.16550761461257935,-2.128243923187256,0.0,0.0,0.0,0.0,0.0,0.0,0.0,0.0,0.0,0.4586361050605774,-0.21732361614704132,-0.028073230758309364,-0.8611775040626526,0.0,-0.1875,0.0,2621.4326171875,25.5625,1.7827547164200874e-13,nan,2.512381248477428e-15,0.0,4.854334959406084e-25
138,0.4169999957084656,0.0,3.0222220420837402,3.29469633102417,-0.7745218873023987,-4.34403657913208,0.6725654602050781,1.1248934268951416,-0.40164074301719666,-0.15976180136203766,-2.1234078407287598,0.0,0.0,0.0,0.0,0.0,0.0,0.0,0.0,0.0,0.4621662199497223,-0.21173250675201416,-0.028634484857320786,-0.860664427280426,0.0,-0.1875,0.0,2621.4326171875,25.5625,3.354608355988929e-20,6.31432058195428e-35,-1.9694252699706225e+24,0.0,-1.9895584755341426e+37
138,0.4169999957084656,0.0,3.2737929821014404,3.470031261444092,-0.6402817368507385,-4.567511081695557,0.7863773107528687,1.2991732358932495,-0.38428306579589844,-0.1608937382698059,-2.1192734241485596,0.0,0.0,0.0,0.0,0.0,0.0,0.0,0.0,0.0,0.4652472138404846,-0.2046021670103073,-0.024316351860761642,-0.8608617782592773,0.0,-0.3125,0.0,2621.427490234375,25.5625,-1.9705779552459717,6.179893262449391e-38,-0.0057942504063248634,0.0,2.0355675719598315e-20
138,0.4169999957084656,0.0,2.968297004699707,3.283156394958496,-0.49540427327156067,-4.2357659339904785,0.6449313759803772,1.2154607772827148,-0.36677414178848267,-0.16080814599990845,-2.1169447898864746,0.0,0.0,0.0,0.0,0.0,0.0,0.0,0.0,0.0,0.467658668756485,-0.19714593887329102,-0.020274527370929718,-0.8613996505737305,0.0,-0.3125,0.0,2621.427490234375,25.5625,-1.9296130394952615e+34,-8.109383489105384e+37,-8.961248592947915e-16,0.0,4.531819456454457e+25
138,0.4169999957084656,0.0,2.5193684101104736,3.2836241722106934,-1.418252944946289,-4.350369453430176,0.44116291403770447,0.14205391705036163,-0.34718242287635803,-0.1688065528869629,-2.1141743659973145,0.0,0.0,0.0,0.0,0.0,0.0,0.0,0.0,0.0,0.46961867809295654,-0.1906971037387848,-0.012256963178515434,-0.8619362711906433,0.0,-0.3125,0.0,2621.427490234375,25.5625,1.7827547164200874e-13,nan,2.512381248477428e-15,0.0,4.854334959406084e-25
138,0.4169999957084656,0.0,2.5601556301116943,3.2482900619506836,-0.7298031449317932,-4.1095476150512695,0.4145981967449188,0.7601426243782043,-0.34052473306655884,-0.164692685008049,-2.108891487121582,0.0,0.0,0.0,0.0,0.0,0.0,0.0,0.0,0.0,0.47279971837997437,-0.1868736296892166,-0.012876493856310844,-0.8610250353813171,0.0,-0.375,0.0,2621.425048828125,25.5625,3.354608355988929e-20,6.31432058195428e-35,-1.9694252699706225e+24,0.0,-1.9895584755341426e+37
138,0.4169999957084656,0.0,2.5944747924804688,2.8757073879241943,-0.8266602158546448,-3.859062910079956,0.6938164234161377,0.5570840835571289,-0.32741260528564453,-0.16228820383548737,-2.1034445762634277,0.0,0.0,0.0,0.0,0.0,0.0,0.0,0.0,0.0,0.47636112570762634,-0.1807154268026352,-0.011145765893161297,-0.8604006171226501,0.0,-0.375,0.0,2621.425048828125,25.5625,-1.9705779552459717,6.179893262449391e-38,-0.0057942504063248634,0.0,2.0355675719598315e-20
138,0.4169999957084656,0.0,2.283522844314575,2.8931174278259277,-1.4260149002075195,-3.9104666709899902,0.5426125526428223,-0.17796693742275238,-0.3043941557407379,-0.16802307963371277,-2.1014699935913086,0.0,0.0,0.0,0.0,0.0,0.0,0.0,0.0,0.0,0.4784143567085266,-0.17231900990009308,-0.0030983365140855312,-0.8610502481460571,0.0,-0.375,0.0,2621.425048828125,25.5625,-1.9296130394952615e+34,-8.109383489105384e+37,-8.961248592947915e-16,0.0,4.531819456454457e+25
138,0.4169999957084656,0.0,2.691277027130127,2.9239046573638916,-0.7723580002784729,-3.936467170715332,0.7888891696929932,0.5199291706085205,-0.29336267709732056,-0.16613353788852692,-2.095618724822998,0.0,0.0,0.0,0.0,0.0,0.0,0.0,0.0,0.0,0.48189473152160645,-0.16717985272407532,-0.0016407076036557555,-0.8601261973381042,0.0,-0.375,0.0,2621.425048828125,25.5625,1.7827547164200874e-13,nan,2.512381248477428e-15,0.0,4.854334959406084e-25
138,0.4169999957084656,0.0,2.730523109436035,2.766848087310791,-0.5125637650489807,-3.7588207721710205,0.8873928189277649,0.6763622164726257,-0.2721754312515259,-0.16952235996723175,-2.0923972129821777,0.0,0.0,0.0,0.0,0.0,0.0,0.0,0.0,0.0,0.4845091700553894,-0.15901395678520203,0.004889659583568573,-0.8601936101913452,0.0,-0.3125,0.0,2621.427490234375,25.5625,3.354608355988929e-20,6.31432058195428e-35,-1.9694252699706225e+24,0.0,-1.9895584755341426e+37
138,0.4169999957084656,0.0,2.265227794647217,2.3636980056762695,-0.7742262482643127,-3.2696468830108643,0.7708963751792908,0.18079306185245514,-0.2530827820301056,-0.17231276631355286,-2.0910630226135254,0.0,0.0,0.0,0.0,0.0,0.0,0.0,0.0,0.0,0.4861895740032196,-0.15158984065055847,0.010804436169564724,-0.860531747341156,0.0,-0.3125,0.0,2621.427490234375,25.5625,-1.9705779552459717,6.179893262449391e-38,-0.0057942504063248634,0.0,2.0355675719598315e-20
138,0.4169999957084656,0.0,1.9595909118652344,2.7466881275177,-0.7853499054908752,-3.4444260597229004,0.35300400853157043,0.11035563796758652,-0.24502380192279816,-0.16259285807609558,-2.0817313194274902,0.0,0.0,0.0,0.0,0.0,0.0,0.0,0.0,0.0,0.4914628863334656,-0.1458365023136139,0.007975277490913868,-0.8585591316223145,0.0,-0.3125,0.0,2621.427490234375,25.5625,-1.9296130394952615e+34,-8.109383489105384e+37,-8.961248592947915e-16,0.0,4.531819456454457e+25
138,0.4169999957084656,0.0,2.5066943168640137,2.9370784759521484,-0.6424341797828674,-3.8333892822265625,0.7085052132606506,0.3543287515640259,-0.2293224334716797,-0.16237133741378784,-2.0801138877868652,0.0,0.0,0.0,0.0,0.0,0.0,0.0,0.0,0.0,0.4931870102882385,-0.1391255110502243,0.011760133318603039,-0.8586406111717224,0.0,-0.3125,0.0,2621.427490234375,25.5625,1.7827547164200874e-13,nan,2.512381248477428e-15,0.0,4.854334959406084e-25
138,0.4169999957084656,0.0,2.0605905055999756,2.5219380855560303,-0.7301207184791565,-3.2857611179351807,0.5840767025947571,0.04144217446446419,-0.20807349681854248,-0.16058681905269623,-2.0758121013641357,0.0,0.0,0.0,0.0,0.0,0.0,0.0,0.0,0.0,0.4964734613895416,-0.12968863546848297,0.016123740002512932,-0.8581528663635254,0.0,-0.3125,0.0,2621.427490234375,25.5625,3.354608355988929e-20,6.31432058195428e-35,-1.9694252699706225e+24,0.0,-1.9895584755341426e+37
138,0.4169999957084656,0.0,1.7366055250167847,2.1372153759002686,-0.8252020478248596,-2.816652774810791,0.5341259837150574,-0.21326559782028198,-0.1898593157529831,-0.1668350249528885,-2.0737791061401367,0.0,0.0,0.0,0.0,0.0,0.0,0.0,0.0,0.0,0.49804651737213135,-0.12352269887924194,0.02333175763487816,-0.8579853773117065,0.0,-0.3125,0.0,2621.427490234375,25.5625,-1.9705779552459717,6.179893262449391e-38,-0.0057942504063248634,0.0,2.0355675719598315e-20
138,0.4169999957084656,0.0,1.7381099462509155,2.5664925575256348,-0.006912269629538059,-3.0301778316497803,0.22129939496517181,0.6138775944709778,-0.18892283737659454,-0.1550222933292389,-2.064786434173584,0.0,0.0,0.0,0.0,0.0,0.0,0.0,0.0,0.0,0.5026744604110718,-0.12026258558034897,0.017962688580155373,-0.8558762669563293,0.0,-0.3125,0.0,2621.427490234375,25.5625,-1.9296130394952615e+34,-8.109383489105384e+37,-8.961248592947915e-16,0.0,4.531819456454457e+25
138,0.4169999957084656,0.0,1.8324964046478271,2.476522445678711,-0.7874088883399963,-3.1379125118255615,0.48535341024398804,-0.17023447155952454,-0.17550870776176453,-0.15522800385951996,-2.060190439224243,0.0,0.0,0.0,0.0,0.0,0.0,0.0,0.0,0.0,0.5053845643997192,-0.11467058211565018,0.021242473274469376,-0.8549720048904419,0.0,-0.3125,0.0,2621.427490234375,25.5625,1.7827547164200874e-13,nan,2.512381248477428e-15,0.0,4.854334959406084e-25
138,0.4169999957084656,0.0,1.5603116750717163,1.4587461948394775,-0.49701693654060364,-2.0724024772644043,0.7151161432266235,-0.05670003965497017,-0.16105468571186066,-0.15560196340084076,-2.0570812225341797,0.0,0.0,0.0,0.0,0.0,0.0,0.0,0.0,0.0,0.5074836015701294,-0.1086728498339653,0.0249695535749197,-0.8544113039970398,0.0,-0.25,0.0,2621.429931640625,25.5625,3.354608355988929e-20,6.31432058195428e-35,-1.9694252699706225e+24,0.0,-1.9895584755341426e+37
138,0.4169999957084656,0.0,1.458594560623169,0.7824468016624451,0.25284382700920105,-1.3084499835968018,0.8508385419845581,0.6063299775123596,-0.16445450484752655,-0.14885205030441284,-2.051593065261841,0.0,0.0,0.0,0.0,0.0,0.0,0.0,0.0,0.0,0.5100111961364746,-0.10845919698476791,0.02090752124786377,-0.8530413508415222,0.0,-0.25,0.0,2621.429931640625,25.5625,-1.9705779552459717,6.179893262449391e-38,-0.0057942504063248634,0.0,2.0355675719598315e-20
138,0.4169999957084656,0.0,1.2029390335083008,1.1838128566741943,-0.1981382817029953,-1.6120860576629639,0.521077036857605,0.13168714940547943,-0.15947586297988892,-0.1382710188627243,-2.0421152114868164,0.0,0.0,0.0,0.0,0.0,0.0,0.0,0.0,0.0,0.5148662328720093,-0.10373269766569138,0.017197927460074425,-0.8507925271987915,0.0,-0.25,0.0,2621.429931640625,25.5625,-1.9296130394952615e+34,-8.109383489105384e+37,-8.961248592947915e-16,0.0,4.531819456454457e+25
138,0.4169999957084656,0.0,1.2827197313308716,0.6375443339347839,-0.2554788887500763,-1.1808509826660156,0.8500654697418213,-0.00678573502227664,-0.1194353699684143,-0.12842392921447754,-2.0517959594726562,0.0,0.0,0.0,0.0,0.0,0.0,0.0,0.0,0.0,0.5130635499954224,-0.08413481712341309,0.023905500769615173,-0.8538777828216553,0.0,0.0,0.0,0.0,25.5625,1.7827547164200874e-13,nan,2.512381248477428e-15,0.0,4.854334959406084e-25
138,0.4169999957084656,0.0,1.0802664756774902,0.9428836703300476,-0.4619121849536896,-1.368399739265442,0.5708522796630859,-0.2663445472717285,-0.0900370329618454,-0.13404296338558197,-2.0452821254730225,0.0,0.0,0.0,0.0,0.0,0.0,0.0,0.0,0.0,0.5168423056602478,-0.07318784296512604,0.03370171785354614,-0.8522753119468689,0.0,0.0,0.0,0.0,25.5625,3.354608355988929e-20,6.31432058195428e-35,-1.9694252699706225e+24,0.0,-1.9895584755341426e+37
138,0.4169999957084656,0.0,0.9749019742012024,0.8167317509651184,-0.33544352650642395,-1.1888437271118164,0.5321819186210632,-0.1827850341796875,-0.07457674294710159,-0.12468639016151428,-2.0356457233428955,0.0,0.0,0.0,0.0,0.0,0.0,0.0,0.0,0.0,0.5218563675880432,-0.06436210125684738,0.033438440412282944,-0.8499392867088318,0.0,0.0,0.0,0.0,25.5625,-1.9705779552459717,6.179893262449391e-38,-0.0057942504063248634,0.0,2.0355675719598315e-20
138,0.4169999957084656,0.0,1.0197339057922363,0.5201679468154907,-0.35855868458747864,-0.9375414252281189,0.7136821150779724,-0.22504647076129913,-0.055465854704380035,-0.11734318733215332,-2.0312039852142334,0.0,0.0,0.0,0.0,0.0,0.0,0.0,0.0,0.0,0.5246151089668274,-0.054420456290245056,0.03521973267197609,-0.8488630652427673,0.0,0.0,0.0,0.0,25.5625,-1.9296130394952615e+34,-8.109383489105384e+37,-8.961248592947915e-16,0.0,4.531819456454457e+25
138,0.4169999957084656,0.0,1.2096096277236938,0.8891915082931519,-0.1685505360364914,-1.3329468965530396,0.708680272102356,-0.05667273327708244,-0.058464594185352325,-0.048293180763721466,-2.0187582969665527,0.0,0.0,0.0,0.0,0.0,0.0,0.0,0.0,0.0,0.5314040780067444,-0.03758307173848152,0.004873128607869148,-0.8462652564048767,0.0,-0.4375,0.0,2621.422607421875,25.5625,1.7827547164200874e-13,nan,2.512381248477428e-15,0.0,4.854334959406084e-25
138,0.4169999957084656,0.0,0.8974490165710449,0.6284940838813782,0.7839974761009216,-0.9102599620819092,0.5295212268829346,0.840282142162323,-0.04533398151397705,-0.02625536359846592,-2.003276824951172,0.0,0.0,0.0,0.0,0.0,0.0,0.0,0.0,0.0,0.5384851098060608,-0.026163214817643166,-0.0011587518965825438,-0.8422228097915649,0.0,-0.4375,0.0,2621.422607421875,25.5625,3.354608355988929e-20,6.31432058195428e-35,-1.9694252699706225e+24,0.0,-1.9895584755341426e+37
138,0.4169999957084656,0.0,0.9673721194267273,0.21094852685928345,-0.6168003678321838,-0.6071763038635254,0.8210093379020691,-0.5639220476150513,-0.012893835082650185,-0.0560336634516716,-2.0061957836151123,0.0,0.0,0.0,0.0,0.0,0.0,0.0,0.0,0.0,0.5373161435127258,-0.020495614036917686,0.020153358578681946,-0.8428858518600464,0.0,-0.4375,0.0,2621.422607421875,25.5625,-1.9705779552459717,6.179893262449391e-38,-0.0057942504063248634,0.0,2.0355675719598315e-20
138,0.4169999957084656,0.0,0.7741297483444214,0.253031462430954,0.11519428342580795,-0.5525380373001099,0.5884687900543213,0.15800721943378448,0.0029528154991567135,-0.07484463602304459,-1.9999538660049438,0.0,0.0,0.0,0.0,0.0,0.0,0.0,0.0,0.0,0.5399869680404663,-0.018973790109157562,0.03227899223566055,-0.8408350944519043,0.0,-0.4375,0.0,2621.422607421875,25.5625,-1.9296130394952615e+34,-8.109383489105384e+37,-8.961248592947915e-16,0.0,4.531819456454457e+25
138,0.4169999957084656,0.0,0.5628396272659302,0.20611095428466797,-0.6159144043922424,-0.4055413007736206,0.48154813051223755,-0.5850263237953186,0.020168861374258995,-0.08597344160079956,-1.9916107654571533,0.0,0.0,0.0,0.0,0.0,0.0,0.0,0.0,0.0,0.5436585545539856,-0.014913962222635746,0.041540294885635376,-0.8381401300430298,0.0,-0.25,0.0,2621.429931640625,25.5625,1.7827547164200874e-13,nan,2.512381248477428e-15,0.0,4.854334959406084e-25
138,0.4169999957084656,0.0,0.5684273838996887,0.33892810344696045,-0.4843797981739044,-0.5185461640357971,0.42890989780426025,-0.46876490116119385,0.03943059593439102,-0.08946092426776886,-1.9824680089950562,0.0,0.0,0.0,0.0,0.0,0.0,0.0,0.0,0.0,0.5477389097213745,-0.008005612529814243,0.04819195717573166,-0.835216760635376,0.0,-0.25,0.0,2621.429931640625,25.5625,3.354608355988929e-20,6.31432058195428e-35,-1.9694252699706225e+24,0.0,-1.9895584755341426e+37
138,0.4169999957084656,0.0,0.8925636410713196,-0.03792072460055351,0.06963440030813217,-0.32278648018836975,0.8257540464401245,0.12993179261684418,0.06165500357747078,-0.09641142934560776,-1.9785165786743164,0.0,0.0,0.0,0.0,0.0,0.0,0.0,0.0,0.0,0.549649715423584,-0.0007307760533876717,0.05715826898813248,-0.8334320783615112,0.0,-0.25,0.0,2621.429931640625,25.5625,-1.9705779552459717,6.179893262449391e-38,-0.0057942504063248634,0.0,2.0355675719598315e-20
138,0.4169999957084656,0.0,0.7841498851776123,-0.09650978446006775,-0.04231075197458267,-0.21184980869293213,0.7619419693946838,0.0234232135117054,0.07080700248479843,-0.10615712404251099,-1.9693671464920044,0.0,0.0,0.0,0.0,0.0,0.0,0.0,0.0,0.0,0.5535637140274048,0.00012012104707537219,0.06372199207544327,-0.8303601741790771,0.0,-0.5625,0.0,2621.41748046875,25.5625,-1.9296130394952615e+34,-8.109383489105384e+37,-8.961248592947915e-16,0.0,4.531819456454457e+25
138,0.4169999957084656,0.0,0.41834014654159546,-0.30660444498062134,-0.07851699739694595,0.13161103427410126,0.5077291131019592,-0.008042615838348866,0.07584085315465927,-0.11995183676481247,-1.957831621170044,0.0,0.0,0.0,0.0,0.0,0.0,0.0,0.0,0.0,0.5584025979042053,-0.002011764096096158,0.07082144170999527,-0.8265339136123657,0.0,-0.5625,0.0,2621.41748046875,25.5625,1.7827547164200874e-13,nan,2.512381248477428e-15,0.0,4.854334959406084e-25
138,0.4169999957084656,0.0,0.2413070648908615,-0.04580957815051079,-0.4038296043872833,-0.010278468020260334,0.28939634561538696,-0.3735589385032654,0.0892561599612236,-0.12348588556051254,-1.9487072229385376,0.0,0.0,0.0,0.0,0.0,0.0,0.0,0.0,0.0,0.5623495578765869,0.0022156168706715107,0.07601060718297958,-0.823390543460846,0.0,-0.5625,0.0,2621.41748046875,25.5625,3.354608355988929e-20,6.31432058195428e-35,-1.9694252699706225e+24,0.0,-1.9895584755341426e+37
138,0.4169999957084656,0.0,0.5399543642997742,-0.2752147614955902,-0.11333469301462173,0.07269962131977081,0.6114137172698975,-0.03194049000740051,0.09408608824014664,-0.12343675643205643,-1.939147710800171,0.0,0.0,0.0,0.0,0.0,0.0,0.0,0.0,0.0,0.5663388967514038,0.003855664748698473,0.07735653966665268,-0.8205198645591736,0.0,-0.5625,0.0,2621.41748046875,25.5625,-1.9705779552459717,6.179893262449391e-38,-0.0057942504063248634,0.0,2.0355675719598315e-20
138,0.4169999957084656,0.0,0.4712618291378021,-0.5469427704811096,0.3758983314037323,0.3139684498310089,0.5781793594360352,0.479223370552063,0.09232651442289352,-0.11998168379068375,-1.9240773916244507,0.0,0.0,0.0,0.0,0.0,0.0,0.0,0.0,0.0,0.5724791884422302,0.003540613455697894,0.07547357678413391,-0.8164253830909729,0.0,-0.4375,0.0,2621.422607421875,25.5625,-1.9296130394952615e+34,-8.109383489105384e+37,-8.961248592947915e-16,0.0,4.531819456454457e+25
138,0.4169999957084656,0.0,0.5526367425918579,-0.5772290825843811,-0.509122908115387,0.39973172545433044,0.7685099244117737,-0.38392457365989685,0.07021757960319519,-0.13274221122264862,-1.90373957157135,0.0,0.0,0.0,0.0,0.0,0.0,0.0,0.0,0.0,0.5804206728935242,-0.0099263247102499,0.07430599629878998,-0.8108533024787903,0.0,-0.4375,0.0,2621.422607421875,25.5625,1.7827547164200874e-13,nan,2.512381248477428e-15,0.0,4.854334959406084e-25
138,0.4169999957084656,0.0,0.13786925375461578,-0.7898558378219604,0.32066819071769714,0.700139582157135,0.31306615471839905,0.3968498408794403,0.03266027569770813,-0.1551331728696823,-1.878513216972351,0.0,0.0,0.0,0.0,0.0,0.0,0.0,0.0,0.0,0.5895532965660095,-0.0326019786298275,0.07214587926864624,-0.803834855556488,0.0,-0.4375,0.0,2621.422607421875,25.5625,3.354608355988929e-20,6.31432058195428e-35,-1.9694252699706225e+24,0.0,-1.9895584755341426e+37
138,0.4169999957084656,0.0,0.28362101316452026,-0.8514840006828308,0.23512454330921173,0.7155046463012695,0.47775718569755554,0.3471827805042267,0.05037635564804077,-0.15074874460697174,-1.8734006881713867,0.0,0.0,0.0,0.0,0.0,0.0,0.0,0.0,0.0,0.5921052694320679,-0.024366768077015877,0.07552402466535568,-0.8019384145736694,0.0,-0.4375,0.0,2621.422607421875,25.5625,-1.9705779552459717,6.179893262449391e-38,-0.0057942504063248634,0.0,2.0355675719598315e-20
138,0.4169999957084656,0.0,0.14026163518428802,-0.6839814186096191,-0.28026774525642395,0.6309155821800232,0.3628292977809906,-0.19064295291900635,0.05861259251832962,-0.15303847193717957,-1.8600467443466187,0.0,0.0,0.0,0.0,0.0,0.0,0.0,0.0,0.0,0.5976030826568604,-0.022258993238210678,0.07872005552053452,-0.7976024746894836,0.0,-0.5,0.0,2621.419921875,25.5625,-1.9296130394952615e+34,-8.109383489105384e+37,-8.961248592947915e-16,0.0,4.531819456454457e+25
138,0.4169999957084656,0.0,0.04638618975877762,-0.797299325466156,-0.2937193214893341,0.7731066346168518,0.2976669669151306,-0.19441485404968262,0.07537420094013214,-0.14794810116291046,-1.8519128561019897,0.0,0.0,0.0,0.0,0.0,0.0,0.0,0.0,0.0,0.6012240052223206,-0.014361320994794369,0.08160907030105591,-0.7947672009468079,0.0,-0.5,0.0,2621.419921875,25.5625,1.7827547164200874e-13,nan,2.512381248477428e-15,0.0,4.854334959406084e-25
138,0.4169999957084656,0.0,-0.0252787284553051,-0.8290268182754517,-0.03548625856637955,0.8057842254638672,0.189790740609169,0.062153760343790054,0.08607929944992065,-0.14582444727420807,-1.84085214138031,0.0,0.0,0.0,0.0,0.0,0.0,0.0,0.0,0.0,0.6058050990104675,-0.009914721362292767,0.08390510827302933,-0.7911088466644287,0.0,-0.5,0.0,2621.419921875,25.5625,3.354608355988929e-20,6.31432058195428e-35,-1.9694252699706225e+24,0.0,-1.9895584755341426e+37
138,0.4169999957084656,0.0,0.17390082776546478,-0.9224914312362671,0.07446476072072983,0.8357557654380798,0.37879255414009094,0.21163666248321533,0.09577994048595428,-0.14396636188030243,-1.8308318853378296,0.0,0.0,0.0,0.0,0.0,0.0,0.0,0.0,0.0,0.609912633895874,-0.005927302874624729,0.08605501800775528,-0.7877545952796936,0.0,-0.5,0.0,2621.419921875,25.5625,-1.9705779552459717,6.179893262449391e-38,-0.0057942504063248634,0.0,2.0355675719598315e-20
138,0.4169999957084656,0.0,-0.011263957247138023,-0.8096016049385071,-0.20710377395153046,0.805690586566925,0.20139046013355255,-0.09362701326608658,0.10890883952379227,-0.1369258612394333,-1.8174216747283936,0.0,0.0,0.0,0.0,0.0,0.0,0.0,0.0,0.0,0.6153477430343628,0.0008341582142747939,0.08725692331790924,-0.7834054231643677,0.0,-0.1875,0.0,2621.4326171875,25.5625,-1.9296130394952615e+34,-8.109383489105384e+37,-8.961248592947915e-16,0.0,4.531819456454457e+25
138,0.4169999957084656,0.0,-0.08183832466602325,-0.9644027948379517,-0.631538450717926,1.0259252786636353,0.2145082652568817,-0.48687979578971863,0.12048233300447464,-0.13921813666820526,-1.8056968450546265,0.0,0.0,0.0,0.0,0.0,0.0,0.0,0.0,0.0,0.6200402975082397,0.004151077941060066,0.09170550853013992,-0.7791754603385925,0.0,-0.1875,0.0,2621.4326171875,25.5625,1.7827547164200874e-13,nan,2.512381248477428e-15,0.0,4.854334959406084e-25
138,0.4169999957084656,0.0,0.04668573662638664,-1.3595553636550903,0.7489413619041443,1.2163220643997192,0.22207532823085785,0.9395133852958679,0.12086918205022812,-0.13181039690971375,-1.7918411493301392,0.0,0.0,0.0,0.0,0.0,0.0,0.0,0.0,0.0,0.6254087090492249,0.005983017385005951,0.08898123353719711,-0.7751786112785339,0.0,-0.1875,0.0,2621.4326171875,25.5625,3.354608355988929e-20,6.31432058195428e-35,-1.9694252699706225e+24,0.0,-1.9895584755341426e+37
138,0.4169999957084656,0.0,0.16737163066864014,-1.3537501096725464,0.40734097361564636,1.2276536226272583,0.36385324597358704,0.6221104860305786,0.12942592799663544,-0.12803879380226135,-1.7764695882797241,0.0,0.0,0.0,0.0,0.0,0.0,0.0,0.0,0.0,0.6313804388046265,0.00980691984295845,0.09024635702371597,-0.7701359987258911,0.0,-0.1875,0.0,2621.4326171875,25.5625,-1.9705779552459717,6.179893262449391e-38,-0.0057942504063248634,0.0,2.0355675719598315e-20
138,0.4169999957084656,0.0,-0.0263068787753582,-1.3800941705703735,-0.1486063450574875,1.3638347387313843,0.23388253152370453,0.11250262707471848,0.16870415210723877,-0.12872114777565002,-1.7693170309066772,0.0,0.0,0.0,0.0,0.0,0.0,0.0,0.0,0.0,0.6341838240623474,0.02444835938513279,0.10285210609436035,-0.7659152150154114,0.0,-0.1875,0.0,2621.4326171875,25.5625,-1.9296130394952615e+34,-8.109383489105384e+37,-8.961248592947915e-16,0.0,4.531819456454457e+25
138,0.4169999957084656,0.0,-0.20017856359481812,-1.3518316745758057,-0.03378394991159439,1.3408955335617065,0.035105470567941666,0.2634322941303253,0.21412120759487152,-0.12480376660823822,-1.7673128843307495,0.0,0.0,0.0,0.0,0.0,0.0,0.0,0.0,0.0,0.6346180438995361,0.04311522841453552,0.1155834048986435,-0.7629108428955078,0.0,-0.1875,0.0,2621.4326171875,25.5625,1.7827547164200874e-13,nan,2.512381248477428e-15,0.0,4.854334959406084e-25
138,0.4169999957084656,0.0,-0.18264591693878174,-1.2349772453308105,-0.5024977326393127,1.3349484205245972,0.07109715044498444,-0.1544640064239502,0.2625472843647003,-0.11406318098306656,-1.7601370811462402,0.0,0.0,0.0,0.0,0.0,0.0,0.0,0.0,0.0,0.6363379955291748,0.0647270604968071,0.12681591510772705,-0.7581514120101929,0.0,-0.1875,0.0,2621.4326171875,25.5625,3.354608355988929e-20,6.31432058195428e-35,-1.9694252699706225e+24,0.0,-1.9895584755341426e+37
138,0.4169999957084656,0.0,0.11485166102647781,-1.3577176332473755,0.489376038312912,1.097516655921936,0.259858101606369,0.907728910446167,0.31681859493255615,-0.10684443265199661,-1.7501219511032104,0.0,0.0,0.0,0.0,0.0,0.0,0.0,0.0,0.0,0.6384847164154053,0.08711611479520798,0.14143766462802887,-0.7514883875846863,0.0,-0.1875,0.0,2621.4326171875,25.5625,-1.9705779552459717,6.179893262449391e-38,-0.0057942504063248634,0.0,2.0355675719598315e-20
138,0.4169999957084656,0.0,0.1340693086385727,-1.317090630531311,-0.6604366898536682,1.4249902963638306,0.37421223521232605,-0.134942889213562,0.3569245934486389,-0.10515902191400528,-1.7431639432907104,0.0,0.0,0.0,0.0,0.0,0.0,0.0,0.0,0.0,0.639656662940979,0.10238669067621231,0.1536792665719986,-0.7461437582969666,0.0,-0.1875,0.0,2621.4326171875,25.5625,-1.9296130394952615e+34,-8.109383489105384e+37,-8.961248592947915e-16,0.0,4.531819456454457e+25
138,0.4169999957084656,0.0,-0.18136586248874664,-1.134688377380371,-1.2268962860107422,1.454740047454834,0.061105795204639435,-0.8400208950042725,0.2935739755630493,-0.09937166422605515,-1.7096827030181885,0.0,0.0,0.0,0.0,0.0,0.0,0.0,0.0,0.0,0.653956413269043,0.0779663473367691,0.13294602930545807,-0.7406612634658813,0.0,-0.1875,0.0,2621.4326171875,25.5625,1.7827547164200874e-13,nan,2.512381248477428e-15,0.0,4.854334959406084e-25
138,0.4169999957084656,0.0,-0.08525839447975159,-1.537684679031372,0.570222795009613,1.5018583536148071,-0.031038302928209305,0.6635574102401733,0.061058059334754944,-0.10648126900196075,-1.6519412994384766,0.0,0.0,0.0,0.0,0.0,0.0,0.0,0.0,0.0,0.677759051322937,-0.013644869439303875,0.05976741388440132,-0.7327179908752441,0.0,-0.1875,0.0,2621.4326171875,25.5625,3.354608355988929e-20,6.31432058195428e-35,-1.9694252699706225e+24,0.0,-1.9895584755341426e+37
138,0.4169999957084656,0.0,-0.05099580064415932,-1.4176563024520874,-0.2213917225599289,1.4053966999053955,0.04788334667682648,-0.2896476984024048,-0.05077403411269188,-0.10641562193632126,-1.6186295747756958,0.0,0.0,0.0,0.0,0.0,0.0,0.0,0.0,0.0,0.6878159046173096,-0.055031392723321915,0.020991535857319832,-0.7234856486320496,0.0,-0.1875,0.0,2621.4326171875,25.5625,-1.9705779552459717,6.179893262449391e-38,-0.0057942504063248634,0.0,2.0355675719598315e-20
138,0.4169999957084656,0.0,-0.09674446284770966,-1.6907891035079956,-0.5280161499977112,1.6195753812789917,0.013868208974599838,-0.7236422300338745,-0.11639229208230972,-0.10719884932041168,-1.5903676748275757,0.0,0.0,0.0,0.0,0.0,0.0,0.0,0.0,0.0,0.6957365870475769,-0.07891488820314407,-0.0024786009453237057,-0.7139385938644409,0.0,-0.1875,0.0,2621.4326171875,25.5625,-1.9296130394952615e+34,-8.109383489105384e+37,-8.961248592947915e-16,0.0,4.531819456454457e+25
138,0.4169999957084656,0.0,-0.05097788944840431,-1.6037620306015015,-0.21631817519664764,1.556411862373352,-0.0025159509386867285,-0.4460671544075012,-0.14360502362251282,-0.0991787388920784,-1.5734810829162598,0.0,0.0,0.0,0.0,0.0,0.0,0.0,0.0,0.0,0.700950562953949,-0.08564744144678116,-0.01559118926525116,-0.7078709006309509,0.0,-0.1875,0.0,2621.4326171875,25.5625,1.7827547164200874e-13,nan,2.512381248477428e-15,0.0,4.854334959406084e-25
138,0.4169999957084656,0.0,-0.19463323056697845,-1.2895891666412354,-0.44825080037117004,1.2147291898727417,-0.14682362973690033,-0.6361556053161621,-0.13590361177921295,-0.09899423271417618,-1.5596619844436646,0.0,0.0,0.0,0.0,0.0,0.0,0.0,0.0,0.0,0.7061572670936584,-0.0827842578291893,-0.013510135933756828,-0.7030629515647888,0.0,-0.625,0.0,2621.4150390625,25.5625,3.354608355988929e-20,6.31432058195428e-35,-1.9694252699706225e+24,0.0,-1.9895584755341426e+37
138,0.4169999957084656,0.0,-0.01563744992017746,-1.6578096151351929,-0.11748889833688736,1.6267528533935547,-0.02500739134848118,-0.33968105912208557,-0.1326494961977005,-0.09818492829799652,-1.5451252460479736,0.0,0.0,0.0,0.0,0.0,0.0,0.0,0.0,0.0,0.7114158272743225,-0.08126816898584366,-0.01322899665683508,-0.6979250907897949,0.0,-0.625,0.0,2621.4150390625,25.5625,-1.9705779552459717,6.179893262449391e-38,-0.0057942504063248634,0.0,2.0355675719598315e-20
138,0.4169999957084656,0.0,-0.024873284623026848,-1.4149284362792969,-0.04075149446725845,1.3968567848205566,-0.05911380052566528,-0.2226293385028839,-0.1245361864566803,-0.09603893011808395,-1.5316777229309082,0.0,0.0,0.0,0.0,0.0,0.0,0.0,0.0,0.0,0.7165014147758484,-0.07761518657207489,-0.011595526710152626,-0.6931511163711548,0.0,-0.625,0.0,2621.4150390625,25.5625,-1.9296130394952615e+34,-8.109383489105384e+37,-8.961248592947915e-16,0.0,4.531819456454457e+25
138,0.4169999957084656,0.0,0.06736844778060913,-1.4484939575195312,-0.09426883608102798,1.428361177444458,0.016867412254214287,-0.26650434732437134,-0.11981672048568726,-0.09344953298568726,-1.5187519788742065,0.0,0.0,0.0,0.0,0.0,0.0,0.0,0.0,0.0,0.7212461829185486,-0.07499019801616669,-0.011277258396148682,-0.6885092258453369,0.0,-0.625,0.0,2621.4150390625,25.5625,1.7827547164200874e-13,nan,2.512381248477428e-15,0.0,4.854334959406084e-25
138,0.4169999957084656,0.0,0.04536544159054756,-1.5270023345947266,-0.3305950462818146,1.4763610363006592,-0.011231995187699795,-0.513105034828186,-0.11930933594703674,-0.09128226339817047,-1.5031484365463257,0.0,0.0,0.0,0.0,0.0,0.0,0.0,0.0,0.0,0.7266952991485596,-0.07394029945135117,-0.012416647747159004,-0.6828498244285583,0.0,-0.4375,0.0,2621.422607421875,25.5625,3.354608355988929e-20,6.31432058195428e-35,-1.9694252699706225e+24,0.0,-1.9895584755341426e+37
138,0.4169999957084656,0.0,-0.053188178688287735,-1.4710427522659302,-0.2574358284473419,1.4246089458465576,-0.13350604474544525,-0.4309238791465759,-0.11060667783021927,-0.08968378603458405,-1.490119218826294,0.0,0.0,0.0,0.0,0.0,0.0,0.0,0.0,0.0,0.7315027713775635,-0.07033926248550415,-0.010242483578622341,-0.6781168580055237,0.0,-0.4375,0.0,2621.422607421875,25.5625,-1.9705779552459717,6.179893262449391e-38,-0.0057942504063248634,0.0,2.0355675719598315e-20
138,0.4169999957084656,0.0,-0.04283575341105461,-1.6267353296279907,-0.061978377401828766,1.6033105850219727,-0.17792415618896484,-0.22279112040996552,-0.09078599512577057,-0.07828200608491898,-1.4771249294281006,0.0,0.0,0.0,0.0,0.0,0.0,0.0,0.0,0.0,0.7369109988212585,-0.059430960565805435,-0.007211436051875353,-0.6733271479606628,0.0,-0.4375,0.0,2621.422607421875,25.5625,-1.9296130394952615e+34,-8.109383489105384e+37,-8.961248592947915e-16,0.0,4.531819456454457e+25
138,0.4169999957084656,0.0,0.1198171079158783,-1.529294490814209,-0.028142966330051422,1.5283399820327759,-0.03350449725985527,-0.13001267611980438,-0.06463555246591568,-0.07526223361492157,-1.464451551437378,0.0,0.0,0.0,0.0,0.0,0.0,0.0,0.0,0.0,0.7419577836990356,-0.04955081641674042,0.0011249608360230923,-0.668605625629425,0.0,-0.4375,0.0,2621.422607421875,25.5625,1.7827547164200874e-13,nan,2.512381248477428e-15,0.0,4.854334959406084e-25
138,0.4169999957084656,0.0,-0.027074338868260384,-1.4236500263214111,-0.03254608064889908,1.4076019525527954,-0.19252608716487885,-0.10063233226537704,-0.03953878581523895,-0.06328186392784119,-1.449946403503418,0.0,0.0,0.0,0.0,0.0,0.0,0.0,0.0,0.0,0.7475783824920654,-0.03677712753415108,0.006184470374137163,-0.6631191968917847,0.0,-0.4375,0.0,2621.422607421875,25.5625,3.354608355988929e-20,6.31432058195428e-35,-1.9694252699706225e+24,0.0,-1.9895584755341426e+37
138,0.4169999957084656,0.0,0.3114764094352722,-3.2834627628326416,-0.25148776173591614,3.282820463180542,-0.11460817605257034,-0.3887941539287567,-0.039368096739053726,-0.06170405074954033,-1.4342528581619263,0.0,0.0,0.0,0.0,0.0,0.0,0.0,0.0,0.0,0.7527905702590942,-0.03617464378476143,0.005441525485366583,-0.6572363972663879,0.0,-0.4375,0.0,2621.422607421875,25.5625,-1.9705779552459717,6.179893262449391e-38,-0.0057942504063248634,0.0,2.0355675719598315e-20
138,0.4169999957084656,0.0,-0.048195596784353256,-1.4105244874954224,0.3184785544872284,1.3973665237426758,-0.27349263429641724,0.2566409409046173,-0.03471522033214569,-0.050572413951158524,-1.419548511505127,0.0,0.0,0.0,0.0,0.0,0.0,0.0,0.0,0.0,0.7578631639480591,-0.030481969937682152,0.003312678774818778,-0.6516862511634827,0.0,-0.4375,0.0,2621.422607421875,25.5625,-1.9296130394952615e+34,-8.109383489105384e+37,-8.961248592947915e-16,0.0,4.531819456454457e+25
138,0.4169999957084656,0.0,-0.004792883992195129,-1.279447078704834,-0.31716635823249817,1.252968192100525,-0.2008827179670334,-0.3567768931388855,-0.02306344173848629,-0.05063989385962486,-1.4027775526046753,0.0,0.0,0.0,0.0,0.0,0.0,0.0,0.0,0.0,0.7634595036506653,-0.026778319850564003,0.007528897374868393,-0.6452498435974121,0.0,-0.4375,0.0,2621.422607421875,25.5625,1.7827547164200874e-13,nan,2.512381248477428e-15,0.0,4.854334959406084e-25
138,0.4169999957084656,0.0,-0.02894497476518154,-1.242013692855835,-0.5671520829200745,1.2081786394119263,-0.2274198830127716,-0.5946844816207886,-0.01223880983889103,-0.05232134088873863,-1.3847297430038452,0.0,0.0,0.0,0.0,0.0,0.0,0.0,0.0,0.0,0.7693552374839783,-0.024039149284362793,0.011988895945250988,-0.638249397277832,0.0,-0.3125,0.0,2621.427490234375,25.5625,3.354608355988929e-20,6.31432058195428e-35,-1.9694252699706225e+24,0.0,-1.9895584755341426e+37
138,0.4169999957084656,0.0,-0.05230528488755226,-1.2756547927856445,-0.0769071951508522,1.2375596761703491,-0.3041064739227295,-0.10901010781526566,-0.014370541088283062,-0.04668183624744415,-1.367432713508606,0.0,0.0,0.0,0.0,0.0,0.0,0.0,0.0,0.0,0.774890124797821,-0.022629927843809128,0.009173471480607986,-0.6316173672676086,0.0,-0.3125,0.0,2621.427490234375,25.5625,-1.9705779552459717,6.179893262449391e-38,-0.0057942504063248634,0.0,2.0355675719598315e-20
138,0.4169999957084656,0.0,0.04724188521504402,-1.0612150430679321,-0.4098663628101349,1.0430902242660522,-0.1651879996061325,-0.42550328373908997,-0.007104594726115465,-0.04693689942359924,-1.3512868881225586,0.0,0.0,0.0,0.0,0.0,0.0,0.0,0.0,0.0,0.7800294160842896,-0.02053166553378105,0.011904538609087467,-0.6252857446670532,0.0,-0.3125,0.0,2621.427490234375,25.5625,-1.9296130394952615e+34,-8.109383489105384e+37,-8.961248592947915e-16,0.0,4.531819456454457e+25
138,0.4169999957084656,0.0,-0.21777312457561493,-0.945685088634491,0.06110187619924545,0.867207407951355,-0.4381483793258667,0.03795113414525986,-0.0067393542267382145,-0.039578624069690704,-1.3308145999908447,0.0,0.0,0.0,0.0,0.0,0.0,0.0,0.0,0.0,0.7864624261856079,-0.017646364867687225,0.009566305205225945,-0.6173050999641418,0.0,0.125,0.0,0.004999999888241291,25.5625,1.7827547164200874e-13,nan,2.512381248477428e-15,0.0,4.854334959406084e-25
138,0.4169999957084656,0.0,-0.03455182537436485,-0.9977189302444458,0.11096664518117905,0.9554725885391235,-0.2923044264316559,0.10277925431728363,0.0037430482916533947,-0.04054461047053337,-1.3128725290298462,0.0,0.0,0.0,0.0,0.0,0.0,0.0,0.0,0.0,0.7920278310775757,-0.014916005544364452,0.013853490352630615,-0.6101385354995728,0.0,0.125,0.0,0.004999999888241291,25.5625,3.354608355988929e-20,6.31432058195428e-35,-1.9694252699706225e+24,0.0,-1.9895584755341426e+37
138,0.4169999957084656,0.0,-0.15274584293365479,-0.7557556629180908,-0.061790503561496735,0.685461163520813,-0.3526550233364105,-0.06389845907688141,0.01429129671305418,-0.03364517167210579,-1.292325496673584,0.0,0.0,0.0,0.0,0.0,0.0,0.0,0.0,0.0,0.7983357310295105,-0.009128157049417496,0.0158328115940094,-0.6019280552864075,0.0,0.125,0.0,0.004999999888241291,25.5625,-1.9705779552459717,6.179893262449391e-38,-0.0057942504063248634,0.0,2.0355675719598315e-20
138,0.4169999957084656,0.0,0.02735120616853237,-1.267187476158142,-0.4250517189502716,1.2299689054489136,-0.32903897762298584,-0.40750518441200256,0.022984720766544342,-0.03166191652417183,-1.2761855125427246,0.0,0.0,0.0,0.0,0.0,0.0,0.0,0.0,0.0,0.8031845688819885,-0.005869914311915636,0.018658610060811043,-0.59540194272995,0.0,0.125,0.0,0.004999999888241291,25.5625,-1.9296130394952615e+34,-8.109383489105384e+37,-8.961248592947915e-16,0.0,4.531819456454457e+25
138,0.4169999957084656,0.0,0.14771665632724762,-1.3198570013046265,0.16751570999622345,1.2952982187271118,-0.27014869451522827,0.20272038877010345,0.031860869377851486,-0.02301258035004139,-1.2581408023834229,0.0,0.0,0.0,0.0,0.0,0.0,0.0,0.0,0.0,0.8085230588912964,7.011589332250878e-05,0.01964879408478737,-0.5881290435791016,0.0,-0.4375,0.0,2621.422607421875,25.5625,1.7827547164200874e-13,nan,2.512381248477428e-15,0.0,4.854334959406084e-25
138,0.4169999957084656,0.0,-0.01737302541732788,-0.8630176186561584,0.0837077721953392,0.8052038550376892,-0.2982512414455414,0.12160784751176834,0.0500061921775341,-0.008407121524214745,-1.2394018173217773,0.0,0.0,0.0,0.0,0.0,0.0,0.0,0.0,0.0,0.8138481974601746,0.011099185794591904,0.02279222197830677,-0.580517053604126,0.0,-0.4375,0.0,2621.422607421875,25.5625,3.354608355988929e-20,6.31432058195428e-35,-1.9694252699706225e+24,0.0,-1.9895584755341426e+37
138,0.4169999957084656,0.0,0.1226513460278511,-1.0914967060089111,-0.3141031563282013,1.0830938816070557,-0.2563242018222809,-0.2573944926261902,0.053466036915779114,-0.003151573007926345,-1.2225947380065918,0.0,0.0,0.0,0.0,0.0,0.0,0.0,0.0,0.0,0.8186310529708862,0.014051162637770176,0.022793304175138474,-0.5736876130104065,0.0,-0.4375,0.0,2621.422607421875,25.5625,-1.9705779552459717,6.179893262449391e-38,-0.0057942504063248634,0.0,2.0355675719598315e-20
138,0.4169999957084656,0.0,0.21646538376808167,-1.0906016826629639,0.07721325010061264,1.0918244123458862,-0.1854461282491684,0.1254531890153885,0.04261353984475136,0.008685227483510971,-1.2063014507293701,0.0,0.0,0.0,0.0,0.0,0.0,0.0,0.0,0.0,0.8233016729354858,0.015660610049962997,0.015083100646734238,-0.5671796798706055,0.0,-0.4375,0.0,2621.422607421875,25.5625,-1.9296130394952615e+34,-8.109383489105384e+37,-8.961248592947915e-16,0.0,4.531819456454457e+25
138,0.4169999957084656,0.0,0.051110509783029556,-0.8846258521080017,-0.21420006453990936,0.8465197086334229,-0.2889520823955536,-0.17593739926815033,0.03808363899588585,0.021466854959726334,-1.1854968070983887,0.0,0.0,0.0,0.0,0.0,0.0,0.0,0.0,0.0,0.8290926218032837,0.019536936655640602,0.009796722792088985,-0.5586764216423035,0.0,-0.3125,0.0,2621.427490234375,25.5625,1.7827547164200874e-13,nan,2.512381248477428e-15,0.0,4.854334959406084e-25
138,0.4169999957084656,0.0,0.053484369069337845,-0.9466367959976196,-0.07784561067819595,0.8912766575813293,-0.3292437791824341,-0.047444116324186325,0.020650621503591537,0.036579813808202744,-1.1619151830673218,0.0,0.0,0.0,0.0,0.0,0.0,0.0,0.0,0.0,0.8356459736824036,0.02095324918627739,-0.0014070621691644192,-0.548859179019928,0.0,-0.3125,0.0,2621.427490234375,25.5625,3.354608355988929e-20,6.31432058195428e-35,-1.9694252699706225e+24,0.0,-1.9895584755341426e+37
138,0.4169999957084656,0.0,-1.7783888578414917,-1.3838187456130981,-0.48038581013679504,0.5342599153518677,-2.2079107761383057,-0.3847038149833679,0.011311527341604233,0.04076683893799782,-1.1464439630508423,0.0,0.0,0.0,0.0,0.0,0.0,0.0,0.0,0.0,0.8399038314819336,0.02019047550857067,-0.006303048692643642,-0.5423150062561035,0.0,-0.3125,0.0,2621.427490234375,25.5625,-1.9705779552459717,6.179893262449391e-38,-0.0057942504063248634,0.0,2.0355675719598315e-20
138,0.4169999957084656,0.0,0.09468661993741989,-0.7985237836837769,-0.20016007125377655,0.7669979333877563,-0.2582521438598633,-0.17798326909542084,0.01748763956129551,0.034457121044397354,-1.1340528726577759,0.0,0.0,0.0,0.0,0.0,0.0,0.0,0.0,0.0,0.8432599306106567,0.019226783886551857,-0.0018787882290780544,-0.5371507406234741,0.0,-0.4375,0.0,2621.422607421875,25.5625,-1.9296130394952615e+34,-8.109383489105384e+37,-8.961248592947915e-16,0.0,4.531819456454457e+25
138,0.4169999957084656,0.0,0.22580164670944214,-1.4267269372940063,-0.02976325899362564,1.3821684122085571,-0.42007479071617126,0.023082640022039413,0.031201910227537155,0.023124806582927704,-1.1184487342834473,0.0,0.0,0.0,0.0,0.0,0.0,0.0,0.0,0.0,0.8474076390266418,0.01807551644742489,0.007089771796017885,-0.5305794477462769,0.0,-0.4375,0.0,2621.422607421875,25.5625,1.7827547164200874e-13,nan,2.512381248477428e-15,0.0,4.854334959406084e-25
