msg_type,mass,time,ax,ay,az,ax_local,ay_local,az_local,pitch,roll,yaw,vx,vy,vz,vx_local,vy_local,vz_local,x,y,z,qw,qx,qy,qz,apogee,baro_altitude,altitude,baro_pressure,baro_temperature,air_pressure,air_density,air_temperature,drag_coefficient,
138,0.477999985218048,57.0256652832031,0.167018577456474,-0.16272084414959,0.02108284085989,0.232274815440178,-0.0158888939768076,0.0247551184147596,0.0149274803698063,0.0126233100891113,-0.702834129333496,0,0,0,0,0,0,0,0,0,0.938820958137512,0.00849486328661442,0.00483485590666533,-0.344255000352859,0,25062.25,0,1002.48999023438,11.4375,6.54245645425231E-020,6.3190960277545E-035,-1.96942526997062E+024,0,-1.95632777563952E+037
138,0.477999985218048,57.1260566711426,0.109317392110825,0.021566042676568,0.109923325479031,0.0684520974755287,0.0884451568126678,0.109498366713524,0.0047923605889082,0.00856363214552403,-0.708451688289642,0,0,0,0,0,0,0,0,0,0.93789666891098,0.00484708556905389,0.000762205803766847,-0.346868425607681,0,25062.25,0,1002.48999023438,11.4375,-0.492644488811493,6.17989326244939E-038,-0.00000000000134906517,0,3.12218549163896E-025
138,0.477999985218048,57.2264442443848,0.182277694344521,0.0252853166311979,-0.0833425894379616,0.121231779456139,0.137726426124573,-0.0845229551196098,-0.00154820806346834,0.00719582242891192,-0.712813377380371,0,0,0,0,0,0,0,0,0,0.937147498130798,0.00310169346630573,-0.00198079040274024,-0.348902642726898,0,25062.25,0,1002.48999023438,11.4375,-7.1883687358173E+025,-8.10938348910538E+037,-4.47574538669777E-016,0,4.53181945645446E+025
138,0.477999985218048,57.326831817627,0.0268558971583843,0.134239822626114,-0.0486946478486061,-0.068671852350235,0.118465855717659,-0.0486046187579632,-0.00701454840600491,0.00329730450175703,-0.720061242580414,0,0,0,0,0,0,0,0,0,0.93587726354599,0.000307310721836984,-0.00386322964914143,-0.352293401956558,0,25062.25,0,1002.48999023438,11.4375,0.00000000004563852074,nan,8.57289444453153E+023,0,1.13012038367492E-034
138,0.477999985218048,57.4276466369629,0.060742300003767,0.0767113342881203,-0.0265818014740944,-0.00528577482327819,0.0975887924432755,-0.0270031653344631,-0.00713907647877932,0.00469662714749575,-0.721845149993897,0,0,0,0,0,0,0,0,0,0.935562133789063,0.000936453463509679,-0.00416882336139679,-0.353125065565109,0,25057.375,0,1002.29498291016,11.3125,6.54245645425231E-020,6.3190960277545E-035,-1.96942526997062E+024,0,-1.95632777563952E+037
138,0.477999985218048,57.5280342102051,0.0735145807266235,0.0954215228557587,-0.0623846426606178,-0.0086022149771452,0.119890905916691,-0.0628759190440178,-0.00747784180566669,0.00461828149855137,-0.724036753177643,0,0,0,0,0,0,0,0,0,0.93517416715622,0.00083526165690273,-0.00431437650695443,-0.354149580001831,0,25057.375,0,1002.29498291016,11.3125,-0.492644488811493,6.17989326244939E-038,-0.00000000000134906517,0,3.12218549163896E-025
138,0.477999985218048,57.6284255981445,0.0757888108491898,0.141967847943306,-0.0338125601410866,-0.038379829376936,0.156231060624123,-0.0340662710368633,-0.0090530663728714,0.00383926369249821,-0.729215979576111,0,0,0,0,0,0,0,0,0,0.934251666069031,0.000179332317202352,-0.00491346791386604,-0.356569230556488,0,25057.375,0,1002.29498291016,11.3125,-7.1883687358173E+025,-8.10938348910538E+037,-4.47574538669777E-016,0,4.53181945645446E+025
138,0.477999985218048,57.7288131713867,0.0983385518193245,0.265651106834412,0.0665206536650658,-0.10376300662756,0.263613849878311,0.0663745701313019,-0.00839927513152361,0.00386911653913558,-0.731711745262146,0,0,0,0,0,0,0,0,0,0.933807075023651,0.000304087239783257,-0.00461377017199993,-0.357735812664032,0,25057.375,0,1002.29498291016,11.3125,0.00000000004563852074,nan,8.57289444453153E+023,0,1.13012038367492E-034
138,0.477999985218048,57.8426170349121,0.111456170678139,0.0250925216823816,-0.0257988348603249,0.065611369907856,0.0932351276278496,-0.0268297325819731,-0.00942939892411232,0.00440817372873426,-0.734965920448303,0,0,0,0,0,0,0,0,0,0.933221995830536,0.000363062339602038,-0.00519175548106432,-0.359251588582993,0,25061.4375,0,1002.45751953125,11.375,6.54245645425231E-020,6.3190960277545E-035,-1.96942526997062E+024,0,-1.95632777563952E+037
138,0.477999985218048,57.9430046081543,0.0591175556182861,0.0751964822411537,-0.0408087149262428,-0.0067978729493916,0.0951977521181107,-0.041300717741251,-0.00729353167116642,0.00567414332181215,-0.734265267848969,0,0,0,0,0,0,0,0,0,0.933350384235382,0.00133900879882276,-0.00442206719890237,-0.358925700187683,0,25061.4375,0,1002.45751953125,11.375,-0.492644488811493,6.17989326244939E-038,-0.00000000000134906517,0,3.12218549163896E-025
138,0.477999985218048,58.0433921813965,0.0922419726848602,0.124110758304596,0.124727211892605,-0.0138476071879268,0.154690146446228,0.123885035514832,-0.00801364798098803,0.00619644904509187,-0.735315501689911,0,0,0,0,0,0,0,0,0,0.933160483837128,0.00145096518099308,-0.00485262414440513,-0.359413057565689,0,25061.4375,0,1002.45751953125,11.375,-7.1883687358173E+025,-8.10938348910538E+037,-4.47574538669777E-016,0,4.53181945645446E+025
138,0.477999985218048,58.1437835693359,0.0765370577573776,0.117339223623276,-0.0188417807221413,-0.0221129078418016,0.138222083449364,-0.0196668356657028,-0.00739142391830683,0.00714537501335144,-0.735475480556488,0,0,0,0,0,0,0,0,0,0.933131694793701,0.00200516334734857,-0.00473299529403448,-0.359486818313599,0,25061.4375,0,1002.45751953125,11.375,0.00000000004563852074,nan,8.57289444453153E+023,0,1.13012038367492E-034
138,0.477999985218048,58.2575836181641,0.0187568571418524,0.0503201112151146,-0.0192118063569069,-0.0199702233076096,0.0497087985277176,-0.0195754859596491,-0.00570605508983135,0.0095875347033143,-0.735630810260773,0,0,0,0,0,0,0,0,0,0.933101713657379,0.00344720599241555,-0.00438589137047529,-0.359558016061783,0,25062.3125,0,1002.49249267578,11.375,6.54245645425231E-020,6.3190960277545E-035,-1.96942526997062E+024,0,-1.95632777563952E+037
138,0.477999985218048,58.3579711914063,-0.00389725062996149,0.0418692529201508,-0.0911627188324928,-0.0319226197898388,0.0275724232196808,-0.0911011025309563,-0.00985999684780836,0.00891596730798483,-0.737021446228027,0,0,0,0,0,0,0,0,0,0.932848453521729,0.00238271709531546,-0.00620482908561826,-0.360196650028229,0,25062.3125,0,1002.49249267578,11.375,-0.492644488811493,6.17989326244939E-038,-0.00000000000134906517,0,3.12218549163896E-025
138,0.477999985218048,58.4583587646484,0.0240883268415928,0.0754542201757431,0.117094002664089,-0.0319269225001335,0.0728508234024048,0.116866126656532,-0.00912716612219811,0.00722372904419899,-0.738720536231995,0,0,0,0,0,0,0,0,0,0.932544827461243,0.00172068865504116,-0.00555971264839172,-0.360995918512344,0,25062.3125,0,1002.49249267578,11.375,-7.1883687358173E+025,-8.10938348910538E+037,-4.47574538669777E-016,0,4.53181945645446E+025
138,0.477999985218048,58.5587501525879,0.0983140543103218,0.134094268083572,-0.0901070013642311,-0.0187302883714437,0.16456313431263,-0.0912895277142525,-0.00851240660995245,0.00812106858938932,-0.740893840789795,0,0,0,0,0,0,0,0,0,0.932152032852173,0.00224416027776897,-0.00543747842311859,-0.36200824379921,0,25061.1875,0,1002.44750976563,11.375,0.00000000004563852074,nan,8.57289444453153E+023,0,1.13012038367492E-034
138,0.477999985218048,58.672550201416,0.148284241557121,0.159867852926254,0.0609292611479759,0.00140838185325265,0.218468755483627,0.0593879595398903,-0.00865504890680313,0.00701420661062002,-0.743784606456757,0,0,0,0,0,0,0,0,0,0.93162876367569,0.00169478927273303,-0.00530606787651777,-0.363357782363892,0,25061.1875,0,1002.44750976563,11.375,6.54245645425231E-020,6.3190960277545E-035,-1.96942526997062E+024,0,-1.95632777563952E+037
138,0.477999985218048,58.7729454040527,0.05882553383708,0.055888619273901,-0.0405102148652077,0.00497509026899934,0.0806747451424599,-0.0411310344934464,-0.00829071458429098,0.00715773645788431,-0.745492279529572,0,0,0,0,0,0,0,0,0,0.931318521499634,0.00182343646883965,-0.00516399135813117,-0.364153653383255,0,25061.1875,0,1002.44750976563,11.375,-0.492644488811493,6.17989326244939E-038,-0.00000000000134906517,0,3.12218549163896E-025
138,0.477999985218048,58.8733329772949,0.0543456114828587,0.0404499508440495,-0.0118637466803193,0.0125754168257117,0.0664518103003502,-0.0125032914802432,-0.00531460763886571,0.00861047115176916,-0.743289411067963,0,0,0,0,0,0,0,0,0,0.931719839572907,0.00304629071615636,-0.00403929967433214,-0.363131582736969,0,25061.1875,0,1002.44750976563,11.375,-7.1883687358173E+025,-8.10938348910538E+037,-4.47574538669777E-016,0,4.53181945645446E+025
138,0.477999985218048,58.9871253967285,0.0841389372944832,0.0344239957630634,-0.119548834860325,0.0374751202762127,0.0817606225609779,-0.120277762413025,-0.00717065716162324,0.00558020081371069,-0.747152626514435,0,0,0,0,0,0,0,0,0,0.931018352508545,0.00128917722031474,-0.00435626320540905,-0.364932835102081,0,25061.125,0,1002.44500732422,11.375,0.00000000004563852074,nan,8.57289444453153E+023,0,1.13012038367492E-034
138,0.477999985218048,59.0875244140625,0.0358307547867298,0.0309806074947119,0.00939079280942678,0.0053530833683908,0.0471398942172527,0.00899813231080771,-0.00605234736576676,0.0076501383446157,-0.745815575122833,0,0,0,0,0,0,0,0,0,0.931261420249939,0.00245963525958359,-0.00421172939240932,-0.364308387041092,0,25061.125,0,1002.44500732422,11.375,6.54245645425231E-020,6.3190960277545E-035,-1.96942526997062E+024,0,-1.95632777563952E+037
138,0.477999985218048,59.1879119873047,0.0780968144536018,0.0240572895854712,-0.0405569449067116,0.0408358164131641,0.0703495666384697,-0.0413034185767174,-0.00536087993532419,0.0074790408834815,-0.745618581771851,0,0,0,0,0,0,0,0,0,0.931297838687897,0.00250630849041045,-0.00385834812186658,-0.364218533039093,0,25061.125,0,1002.44500732422,11.375,-0.492644488811493,6.17989326244939E-038,-0.00000000000134906517,0,3.12218549163896E-025
138,0.477999985218048,59.2882995605469,0.0819790959358215,0.00928863976150751,-0.0117283249273896,0.0538529194891453,0.0623458623886108,-0.0125359203666449,-0.00623096060007811,0.0075633879750967,-0.745591521263123,0,0,0,0,0,0,0,0,0,0.931302070617676,0.00238718348555267,-0.00427882792428136,-0.364203780889511,0,25061.125,0,1002.44500732422,11.375,-7.1883687358173E+025,-8.10938348910538E+037,-4.47574538669777E-016,0,4.53181945645446E+025
138,0.477999985218048,59.4020957946777,0.138748526573181,0.104977518320084,-0.0469475165009499,0.031010739505291,0.170771196484566,-0.0484820567071438,-0.00416475255042315,0.008219956420362,-0.742744147777557,0,0,0,0,0,0,0,0,0,0.931819796562195,0.00307408906519413,-0.00343188527040184,-0.362881004810333,0,25061.4375,0,1002.45751953125,11.4375,0.00000000004563852074,nan,8.57289444453153E+023,0,1.13012038367492E-034
138,0.477999985218048,59.5024909973145,-0.000837546947877854,0.0425322726368904,-0.0627861395478249,-0.0298280250281096,0.030244892463088,-0.062827043235302,-0.00597975263372064,0.00717614544555545,-0.745064973831177,0,0,0,0,0,0,0,0,0,0.931398570537567,0.00225368910469115,-0.00409074174240232,-0.363959938287735,0,25061.4375,0,1002.45751953125,11.4375,6.54245645425231E-020,6.3190960277545E-035,-1.96942526997062E+024,0,-1.95632777563952E+037
138,0.477999985218048,59.6028785705566,0.0331178940832615,0.0945369079709053,0.0167121514678001,-0.0396363027393818,0.0920942798256874,0.0161479637026787,-0.00478190369904041,0.00819087028503418,-0.74465423822403,0,0,0,0,0,0,0,0,0,0.931472599506378,0.00294500659219921,-0.00371695938520133,-0.363769352436066,0,25061.4375,0,1002.45751953125,11.4375,-0.492644488811493,6.17989326244939E-038,-0.00000000000134906517,0,3.12218549163896E-025
138,0.477999985218048,59.7032737731934,-0.00304291443899274,0.0261724404990673,0.023406945168972,-0.019855510443449,0.0173852294683456,0.0233587995171547,-0.00496109435334802,0.00848972331732512,-0.744479417800903,0,0,0,0,0,0,0,0,0,0.931503891944885,0.00305193639360368,-0.00385450525209308,-0.363687008619308,0,25061.4375,0,1002.45751953125,11.4375,-7.1883687358173E+025,-8.10938348910538E+037,-4.47574538669777E-016,0,4.53181945645446E+025
138,0.477999985218048,59.8170623779297,0.118559569120407,0.0324973240494728,0.0466098412871361,0.0655032396316528,0.104673743247986,0.0451373532414436,-0.00797391496598721,0.00910587981343269,-0.744858682155609,0,0,0,0,0,0,0,0,0,0.931431889533997,0.00278999400325119,-0.0053702974691987,-0.363854259252548,0,25062.1875,0,1002.48748779297,11.4375,0.00000000004563852074,nan,8.57289444453153E+023,0,1.13012038367492E-034
138,0.477999985218048,59.9174652099609,0.0511802136898041,-0.0133739113807678,-0.062199629843235,0.0462510585784912,0.0243819020688534,-0.0627162456512451,-0.0070074750110507,0.0077751069329679,-0.745026588439941,0,0,0,0,0,0,0,0,0,0.931404113769531,0.00234567793086171,-0.00467830337584019,-0.363938391208649,0,25062.1875,0,1002.48748779297,11.4375,6.54245645425231E-020,6.3190960277545E-035,-1.96942526997062E+024,0,-1.95632777563952E+037
138,0.477999985218048,60.0178527832031,-0.0309113077819347,0.0118845207616687,-0.0559215918183327,-0.0311106257140636,-0.0126449130475521,-0.0556429885327816,-0.00611076643690467,0.00715773180127144,-0.745831370353699,0,0,0,0,0,0,0,0,0,0.931258916854858,0.0022196804638952,-0.00414925487712026,-0.364316582679749,0,25062.1875,0,1002.48748779297,11.4375,-0.492644488811493,6.17989326244939E-038,-0.00000000000134906517,0,3.12218549163896E-025
138,0.477999985218048,60.1316452026367,0.109720572829247,0.139828249812126,-0.0406303778290749,-0.015453995205462,0.176898032426834,-0.0413411185145378,-0.00744448229670525,0.00466114981099963,-0.750683426856995,0,0,0,0,0,0,0,0,0,0.930372834205627,0.000803763046860695,-0.00431746058166027,-0.366577386856079,0,25061.25,0,1002.45001220703,11.4375,-7.1883687358173E+025,-8.10938348910538E+037,-4.47574538669777E-016,0,4.53181945645446E+025
138,0.477999985218048,60.2320327758789,0.185969725251198,0.046176690608263,0.0323924645781517,0.10437598079443,0.161054730415344,0.0305403117090464,-0.00693615805357695,0.00701279612258077,-0.752747476100922,0,0,0,0,0,0,0,0,0,0.929992973804474,0.00198623444885016,-0.00451407535001636,-0.367533177137375,0,25061.25,0,1002.45001220703,11.4375,0.00000000004563852074,nan,8.57289444453153E+023,0,1.13012038367492E-034
138,0.477999985218048,60.3324317932129,-0.0805224105715752,0.116605184972286,-0.0131378555670381,-0.138560742139816,0.029912581667304,-0.0126119963824749,-0.00535452133044601,0.00721006374806166,-0.753095328807831,0,0,0,0,0,0,0,0,0,0.929930031299591,0.00236797146499157,-0.00381528306752443,-0.367698043584824,0,25061.25,0,1002.45001220703,11.4375,6.54245645425231E-020,6.3190960277545E-035,-1.96942526997062E+024,0,-1.95632777563952E+037
138,0.477999985218048,60.4328193664551,-0.0476016886532307,-0.0208375472575426,0.080261193215847,-0.0201805047690868,-0.0470887832343578,0.0807293653488159,-0.00499429227784276,0.00774305406957865,-0.750926017761231,0,0,0,0,0,0,0,0,0,0.930327892303467,0.00268608634360135,-0.00374286738224328,-0.366688966751099,0,25061.25,0,1002.45001220703,11.4375,-0.492644488811493,6.17989326244939E-038,-0.00000000000134906517,0,3.12218549163896E-025
138,0.477999985218048,60.5466156005859,0.0155884679406881,-0.0508651770651341,-0.106019057333469,0.0456253886222839,-0.0272985398769379,-0.106033958494663,-0.00413840776309371,0.00645472807809711,-0.749522805213928,0,0,0,0,0,0,0,0,0,0.930586934089661,0.00224591395817697,-0.00310695613734424,-0.366040170192718,0,25062.25,0,1002.48999023438,11.4375,-7.1883687358173E+025,-8.10938348910538E+037,-4.47574538669777E-016,0,4.53181945645446E+025
138,0.477999985218048,60.6470031738281,0.0671517848968506,0.0148745784536004,0.0379371270537376,0.0392076373100281,0.0568196550011635,0.0374704077839851,-0.00332747283391654,0.0059280009008944,-0.748467087745667,0,0,0,0,0,0,0,0,0,0.930780827999115,0.00215064384974539,-0.00263209501281381,-0.365551084280014,0,25062.25,0,1002.48999023438,11.4375,0.00000000004563852074,nan,8.57289444453153E+023,0,1.13012038367492E-034
138,0.477999985218048,60.7473983764649,0.00350491725839674,0.00163117749616504,-0.177826926112175,0.000824979913886637,0.00244967173784971,-0.17784871160984,-0.0035819043405354,0.00634900946170092,-0.747396111488342,0,0,0,0,0,0,0,0,0,0.930975794792175,0.00230158516205847,-0.00282622338272631,-0.365051537752151,0,25062.25,0,1002.48999023438,11.4375,6.54245645425231E-020,6.3190960277545E-035,-1.96942526997062E+024,0,-1.95632777563952E+037
138,0.477999985218048,60.8477935791016,0.0105570387095213,0.0153927821666002,0.0951356515288353,-0.00219975458458066,0.0190390180796385,0.0950352996587753,-0.00609059724956751,0.00612102402374148,-0.750618040561676,0,0,0,0,0,0,0,0,0,0.930385410785675,0.00173117185477167,-0.00395517237484455,-0.366546511650085,0,25062.25,0,1002.48999023438,11.4375,-0.492644488811493,6.17989326244939E-038,-0.00000000000134906517,0,3.12218549163896E-025
138,0.477999985218048,60.9615821838379,0.15257041156292,0.0639736875891686,-0.0325632467865944,0.0681578516960144,0.150404185056686,-0.0341079346835613,-0.00476976018399,0.00810066051781178,-0.748093605041504,0,0,0,0,0,0,0,0,0,0.93084579706192,0.00289884302765131,-0.00369988661259413,-0.365370899438858,0,25062.375,0,1002.49499511719,11.4375,-7.1883687358173E+025,-8.10938348910538E+037,-4.47574538669777E-016,0,4.53181945645446E+025
138,0.477999985218048,61.0619773864746,0.261013239622116,0.0343381240963936,-0.00262645725160837,0.168035089969635,0.202604964375496,-0.00531140295788646,-0.00556629663333297,0.00863453559577465,-0.747636437416077,0,0,0,0,0,0,0,0,0,0.930928111076355,0.00300274859182537,-0.00416745711117983,-0.365155160427093,0,25062.375,0,1002.49499511719,11.4375,0.00000000004563852074,nan,8.57289444453153E+023,0,1.13012038367492E-034
138,0.477999985218048,61.1623725891113,0.0102937426418066,0.0205662101507187,-0.0267038717865944,-0.00660849688574672,0.0218651257455349,-0.0268374867737293,-0.0065409354865551,0.00803217198699713,-0.747603833675385,0,0,0,0,0,0,0,0,0,0.930934309959412,0.00254448410123587,-0.00451109651476145,-0.365138828754425,0,25062.375,0,1002.49499511719,11.4375,6.54245645425231E-020,6.3190960277545E-035,-1.96942526997062E+024,0,-1.95632777563952E+037
138,0.477999985218048,61.2627601623535,0.106007725000381,0.108269669115543,0.0247878655791283,0.0042242081835866,0.151679292321205,0.0234428066760302,-0.00616765581071377,0.0087037505581975,-0.747969567775726,0,0,0,0,0,0,0,0,0,0.930866897106171,0.00292442087084055,-0.00446049170568585,-0.365308493375778,0,25061.6875,0,1002.46752929688,11.4375,-0.492644488811493,6.17989326244939E-038,-0.00000000000134906517,0,3.12218549163896E-025
138,0.477999985218048,61.3765525817871,0.0561060532927513,0.0911211669445038,-0.0406904593110085,-0.0213664639741182,0.104624822735786,-0.0412744097411633,-0.0065819239243865,0.00691094668582082,-0.750378668308258,0,0,0,0,0,0,0,0,0,0.930428028106689,0.00200910330750048,-0.00432826485484839,-0.366432458162308,0,25061.6875,0,1002.46752929688,11.4375,-7.1883687358173E+025,-8.10938348910538E+037,-4.47574538669777E-016,0,4.53181945645446E+025
138,0.477999985218048,61.4769439697266,0.0450315102934837,0.0518536232411861,0.00236412044614553,-0.00238854740746319,0.0686527714133263,0.0017995925154537,-0.00464339274913073,0.00838560611009598,-0.75004643201828,0,0,0,0,0,0,0,0,0,0.930488169193268,0.00305094267241657,-0.0036961087025702,-0.366279363632202,0,25061.6875,0,1002.46752929688,11.4375,0.00000000004563852074,nan,8.57289444453153E+023,0,1.13012038367492E-034
138,0.477999985218048,61.5773391723633,0.0601358078420162,0.0271857753396034,-0.00467399600893259,0.025487769395113,0.0608200021088123,-0.00533472979441285,-0.00399565976113081,0.00918571092188358,-0.749391674995422,0,0,0,0,0,0,0,0,0,0.930606961250305,0.00354297831654549,-0.00354012590833008,-0.365974903106689,0,25061.6875,0,1002.46752929688,11.4375,6.54245645425231E-020,6.3190960277545E-035,-1.96942526997062E+024,0,-1.95632777563952E+037
138,0.477999985218048,61.6911354064941,0.111770786345005,0.0519142858684063,-0.0257645025849342,0.0460080802440643,0.114065535366535,-0.0269009247422218,-0.00629903702065349,0.00741309951990843,-0.751952230930328,0,0,0,0,0,0,0,0,0,0.930139124393463,0.0022911699488759,-0.00429046852514148,-0.367163926362991,0,25061.375,0,1002.45501708984,11.4375,-0.492644488811493,6.17989326244939E-038,-0.00000000000134906517,0,3.12218549163896E-025
138,0.477999985218048,61.7915229797363,-0.0460646748542786,-0.0752536207437515,0.0514697656035423,0.0179316345602274,-0.0860325694084168,0.0520661547780037,-0.00550073152408004,0.00805484130978584,-0.750672578811646,0,0,0,0,0,0,0,0,0,0.930373668670654,0.00273877149447799,-0.0040352619253099,-0.366569310426712,0,25061.375,0,1002.45501708984,11.4375,-7.1883687358173E+025,-8.10938348910538E+037,-4.47574538669777E-016,0,4.53181945645446E+025
138,0.477999985218048,61.8919105529785,0.0215056296437979,0.0154471797868609,-0.0193262472748756,0.00517593184486032,0.0257579572498798,-0.0196043867617846,-0.00460395449772477,0.00983426067978144,-0.747727990150452,0,0,0,0,0,0,0,0,0,0.930909872055054,0.00373671227134764,-0.00393873639404774,-0.365197867155075,0,25061.375,0,1002.45501708984,11.4375,0.00000000004563852074,nan,8.57289444453153E+023,0,1.13012038367492E-034
138,0.477999985218048,61.992431640625,-0.0190969854593277,0.00365901924669743,-0.0198116675019264,-0.0166037417948246,-0.0105022490024567,-0.0196110010147095,-0.00682867364957929,0.00840544514358044,-0.749826550483704,0,0,0,0,0,0,0,0,0,0.930527210235596,0.00266045494936407,-0.00471613649278879,-0.366171598434448,0,25061.375,0,1002.45501708984,11.4375,6.54245645425231E-020,6.3190960277545E-035,-1.96942526997062E+024,0,-1.95632777563952E+037
138,0.477999985218048,62.1062240600586,0.00557371927425265,0.0242563374340534,0.0237912759184837,-0.012234864756465,0.0217827744781971,0.0236909464001656,-0.00858216919004917,0.00950729846954346,-0.749246835708618,0,0,0,0,0,0,0,0,0,0.930630147457123,0.00285370065830648,-0.00573287298902869,-0.365894168615341,0,25060.375,0,1002.41497802734,11.4375,-0.492644488811493,6.17989326244939E-038,-0.00000000000134906517,0,3.12218549163896E-025
138,0.477999985218048,62.2066154479981,0.00530726741999388,0.0724159479141235,-0.0195961371064186,-0.0458287186920643,0.0563322715461254,-0.0195591151714325,-0.00908070150762796,0.00671128323301673,-0.753091514110565,0,0,0,0,0,0,0,0,0,0.929927408695221,0.00145097041968256,-0.00545611837878823,-0.367688924074173,0,25060.375,0,1002.41497802734,11.4375,-7.1883687358173E+025,-8.10938348910538E+037,-4.47574538669777E-016,0,4.53181945645446E+025
138,0.477999985218048,62.3070030212402,0.0686483830213547,0.0679531916975975,-0.0760345831513405,0.0033053404185921,0.0958062559366226,-0.0769511610269547,-0.00699476012960076,0.00927835516631603,-0.750750362873077,0,0,0,0,0,0,0,0,0,0.930356562137604,0.0030338887590915,-0.00495462911203504,-0.366598814725876,0,25060.375,0,1002.41497802734,11.4375,0.00000000004563852074,nan,8.57289444453153E+023,0,1.13012038367492E-034
138,0.477999985218048,62.407398223877,-0.0119762336835265,0.074980653822422,-0.191793486475945,-0.0608679801225662,0.0449794121086597,-0.191889360547066,-0.00548415770754218,0.00933735724538565,-0.748821973800659,0,0,0,0,0,0,0,0,0,0.93071049451828,0.00334236095659435,-0.00425952579826117,-0.365705639123917,0,25060.375,0,1002.41497802734,11.4375,6.54245645425231E-020,6.3190960277545E-035,-1.96942526997062E+024,0,-1.95632777563952E+037
138,0.477999985218048,62.5211944580078,0.083282895386219,-0.0232441741973162,0.0242528542876244,0.076885998249054,0.0400689207017422,0.0233971159905195,-0.00754444161430001,0.0069059613160789,-0.751894235610962,0,0,0,0,0,0,0,0,0,0.930149137973785,0.0018268043641001,-0.00477651273831725,-0.367135256528854,0,25060.875,0,1002.43499755859,11.4375,-0.492644488811493,6.17989326244939E-038,-0.00000000000134906517,0,3.12218549163896E-025
138,0.477999985218048,62.6215858459473,0.0694603398442268,0.0758511424064636,-0.176812216639519,-0.00194315565750003,0.101433135569096,-0.177616328001022,-0.00606438610702753,0.00797022879123688,-0.749914467334747,0,0,0,0,0,0,0,0,0,0.930512249469757,0.00259771710261703,-0.00428097369149327,-0.366215437650681,0,25060.875,0,1002.43499755859,11.4375,-7.1883687358173E+025,-8.10938348910538E+037,-4.47574538669777E-016,0,4.53181945645446E+025
138,0.477999985218048,62.7219772338867,0.157046735286713,0.0538197681307793,-0.00333885196596384,0.07830560952425,0.146328613162041,-0.00520715769380331,-0.00519968941807747,0.00998356286436319,-0.749310433864594,0,0,0,0,0,0,0,0,0,0.930620074272156,0.00369405839592218,-0.0042462102137506,-0.36593234539032,0,25060.875,0,1002.43499755859,11.4375,0.00000000004563852074,nan,8.57289444453153E+023,0,1.13012038367492E-034
138,0.477999985218048,62.8357772827148,0.0714140310883522,0.108126766979694,-0.0469999685883522,-0.0220683049410582,0.127350404858589,-0.0479052625596523,-0.0110531896352768,0.00898952037096024,-0.750780701637268,0,0,0,0,0,0,0,0,0,0.930346310138702,0.00215544691309333,-0.00678959302604198,-0.366601824760437,0,25062.0625,0,1002.48248291016,11.4375,6.54245645425231E-020,6.3190960277545E-035,-1.96942526997062E+024,0,-1.95632777563952E+037
138,0.477999985218048,62.9361686706543,0.00993454363197088,0.0542389564216137,-0.0334024801850319,-0.0299083795398474,0.0461427681148052,-0.0336534008383751,-0.00818771496415138,0.0106852864846587,-0.748574554920197,0,0,0,0,0,0,0,0,0,0.93075156211853,0.00347594521008432,-0.00576366996392608,-0.365579128265381,0,25062.0625,0,1002.48248291016,11.4375,-0.492644488811493,6.17989326244939E-038,-0.00000000000134906517,0,3.12218549163896E-025
138,0.477999985218048,63.0365562438965,0.0693368911743164,0.0345431827008724,0.010252914391458,0.0274082962423563,0.0725807994604111,0.0093097947537899,-0.00746571039780974,0.0101843690499663,-0.747990965843201,0,0,0,0,0,0,0,0,0,0.930859684944153,0.00337637751363218,-0.00533512094989419,-0.365311175584793,0,25062.0625,0,1002.48248291016,11.4375,-7.1883687358173E+025,-8.10938348910538E+037,-4.47574538669777E-016,0,4.53181945645446E+025
138,0.477999985218048,63.1369438171387,-0.00675428612157702,0.0541014634072781,0.0307368859648705,-0.0415284149348736,0.0353105925023556,0.0307544302195311,-0.0079081691801548,0.00885862484574318,-0.748669922351837,0,0,0,0,0,0,0,0,0,0.930737257003784,0.00267671165056527,-0.00529980706050992,-0.365629404783249,0,25062.0625,0,1002.48248291016,11.4375,0.00000000004563852074,nan,8.57289444453153E+023,0,1.13012038367492E-034
138,0.477999985218048,63.2507438659668,0.0354248397052288,0.0731227472424507,-0.0980701819062233,-0.0247358027845621,0.0768166035413742,-0.0985226035118103,-0.00765934633091092,0.0082850968465209,-0.75080132484436,0,0,0,0,0,0,0,0,0,0.930348038673401,0.00244988803751767,-0.00508177746087313,-0.366623252630234,0,25061.125,0,1002.44500732422,11.4375,6.54245645425231E-020,6.3190960277545E-035,-1.96942526997062E+024,0,-1.95632777563952E+037
138,0.477999985218048,63.3511352539063,0.0682474970817566,0.0797044411301613,-0.0189648047089577,-0.00472368951886892,0.104697197675705,-0.0196515675634146,-0.00781491212546825,0.00690361764281988,-0.751735627651215,0,0,0,0,0,0,0,0,0,0.930177986621857,0.0017764501972124,-0.00490173045545816,-0.367060899734497,0,25061.125,0,1002.44500732422,11.4375,-0.492644488811493,6.17989326244939E-038,-0.00000000000134906517,0,3.12218549163896E-025
138,0.477999985218048,63.4515228271484,0.0551144070923328,0.0393073037266731,-0.105333365499973,0.0127922799438238,0.0655857175588608,-0.10588863492012,-0.00602570082992315,0.00723242899402976,-0.751596093177795,0,0,0,0,0,0,0,0,0,0.930205047130585,0.00225806445814669,-0.00412977812811732,-0.366999357938766,0,25061.125,0,1002.44500732422,11.4375,-7.1883687358173E+025,-8.10938348910538E+037,-4.47574538669777E-016,0,4.53181945645446E+025
138,0.477999985218048,63.5519104003906,0.152706533670425,-0.0444137565791607,-0.0759811773896217,0.141853675246239,0.0707424432039261,-0.0770555064082146,-0.00237471517175436,0.0103719057515264,-0.749611139297485,0,0,0,0,0,0,0,0,0,0.930564165115356,0.00439121574163437,-0.00300343544222414,-0.366079241037369,0,25061.125,0,1002.44500732422,11.4375,0.00000000004563852074,nan,8.57289444453153E+023,0,1.13012038367492E-034
138,0.477999985218048,63.665714263916,0.0755577832460403,0.0186215788125992,0.0746278390288353,0.0431379899382591,0.0657509937882423,0.0737616866827011,-0.00805871747434139,0.00794892758131027,-0.750817894935608,0,0,0,0,0,0,0,0,0,0.930344939231873,0.00222025136463344,-0.00520594790577889,-0.366630762815475,0,25061.5625,0,1002.46252441406,11.4375,6.54245645425231E-020,6.3190960277545E-035,-1.96942526997062E+024,0,-1.95632777563952E+037
138,0.477999985218048,63.7661056518555,0.00900664646178484,0.0474858395755291,0.0164126977324486,-0.0256172567605972,0.0410553999245167,0.0162348039448261,-0.00628288136795163,0.00827167928218842,-0.748605668544769,0,0,0,0,0,0,0,0,0,0.930751144886017,0.00270086200907826,-0.00443606125190854,-0.365605175495148,0,25061.5625,0,1002.46252441406,11.4375,-0.492644488811493,6.17989326244939E-038,-0.00000000000134906517,0,3.12218549163896E-025
138,0.477999985218048,63.8664932250977,0.0272958725690842,0.0153687344864011,-0.0839443579316139,0.00907689984887838,0.0290956404060125,-0.0842546373605728,-0.00567196868360043,0.00876007881015539,-0.748086750507355,0,0,0,0,0,0,0,0,0,0.930845737457275,0.00304093607701361,-0.00424024974927306,-0.365364193916321,0,25061.5625,0,1002.46252441406,11.4375,-7.1883687358173E+025,-8.10938348910538E+037,-4.47574538669777E-016,0,4.53181945645446E+025
138,0.477999985218048,63.9668807983398,0.0691782608628273,0.107491791248322,0.0383138284087181,-0.0224864389747381,0.126018643379211,0.0377020537853241,-0.00742957973852754,0.00619214354082942,-0.750940382480621,0,0,0,0,0,0,0,0,0,0.930324971675873,0.0015181025955826,-0.00459133554250002,-0.366693556308746,0,25061.9375,0,1002.47747802734,11.4375,0.00000000004563852074,nan,8.57289444453153E+023,0,1.13012038367492E-034
138,0.477999985218048,64.080680847168,0.0533075667917728,0.00490994146093726,-0.0190964117646217,0.0356036610901356,0.0397103391587734,-0.0196441654115915,-0.00516208400949836,0.00914230383932591,-0.748866021633148,0,0,0,0,0,0,0,0,0,0.930702865123749,0.00331039866432548,-0.00407405430451036,-0.36572739481926,0,25061.9375,0,1002.47747802734,11.4375,6.54245645425231E-020,6.3190960277545E-035,-1.96942526997062E+024,0,-1.95632777563952E+037
138,0.477999985218048,64.1810684204102,0.0502284057438374,0.0427081622183323,-0.0697603598237038,0.00720200315117836,0.0650943368673325,-0.0701719224452972,-0.00439699646085501,0.00581603636965156,-0.752002477645874,0,0,0,0,0,0,0,0,0,0.930132865905762,0.00189754739403725,-0.00311273755505681,-0.367194145917892,0,25061.9375,0,1002.47747802734,11.4375,-0.492644488811493,6.17989326244939E-038,-0.00000000000134906517,0,3.12218549163896E-025
138,0.477999985218048,64.2814636230469,0.0823185965418816,0.00418887101113796,-0.0119572067633271,0.0573194958269596,0.0590897165238857,-0.0126349208876491,-0.00367713486775756,0.00789590552449226,-0.750202536582947,0,0,0,0,0,0,0,0,0,0.930460572242737,0.00299983564764261,-0.00315711204893887,-0.366355061531067,0,25061.9375,0,1002.47747802734,11.4375,-7.1883687358173E+025,-8.10938348910538E+037,-4.47574538669777E-016,0,4.53181945645446E+025
138,0.477999985218048,64.3952560424805,0.0506617911159992,0.0128216296434402,-0.0694971457123756,0.0280630830675364,0.0433055944740772,-0.069984532892704,-0.00373260444030166,0.00877499207854271,-0.750137567520142,0,0,0,0,0,0,0,0,0,0.930471181869507,0.00339876115322113,-0.00334383617155254,-0.366323292255402,0,25061.625,0,1002.46502685547,11.4375,0.00000000004563852074,nan,8.57289444453153E+023,0,1.13012038367492E-034
138,0.477999985218048,64.4956512451172,0.131588667631149,-0.042162649333477,0.0103377914056182,0.125223442912102,0.058604147285223,0.00919072329998016,-0.00407341821119189,0.010878630913794,-0.747243642807007,0,0,0,0,0,0,0,0,0,0.930996119976044,0.00432064011693001,-0.00388145074248314,-0.364971846342087,0,25061.625,0,1002.46502685547,11.4375,6.54245645425231E-020,6.3190960277545E-035,-1.96942526997062E+024,0,-1.95632777563952E+037
138,0.477999985218048,64.5960388183594,0.00995256658643484,-0.00203035864979029,-0.11278060823679,0.00820200704038143,0.00407073739916086,-0.11286536604166,-0.00429485039785504,0.0105830710381269,-0.746142029762268,0,0,0,0,0,0,0,0,0,0.931197643280029,0.00414481107145548,-0.00392830884084105,-0.364458918571472,0,25061.625,0,1002.46502685547,11.4375,-0.492644488811493,6.17989326244939E-038,-0.00000000000134906517,0,3.12218549163896E-025
138,0.477999985218048,64.6964340209961,0.0886949822306633,0.035989910364151,-0.0471992865204811,0.0402871556580067,0.0862352475523949,-0.0482709333300591,-0.00615016417577863,0.00952271744608879,-0.747538328170776,0,0,0,0,0,0,0,0,0,0.930944263935089,0.00330978189595044,-0.00460122479125857,-0.365105926990509,0,25061.625,0,1002.46502685547,11.4375,-7.1883687358173E+025,-8.10938348910538E+037,-4.47574538669777E-016,0,4.53181945645446E+025
138,0.477999985218048,64.8102264404297,0.0802706182003021,0.159451246261597,0.0101651763543487,-0.0498855262994766,0.171459168195725,0.00916889309883118,-0.00802857615053654,0.00814986787736416,-0.75008237361908,0,0,0,0,0,0,0,0,0,0.930479526519775,0.00232117180712521,-0.00522790942341089,-0.366288155317307,0,25061.75,0,1002.46997070313,11.4375,0.00000000004563852074,nan,8.57289444453153E+023,0,1.13012038367492E-034
138,0.477999985218048,64.9106216430664,-0.00481611490249634,-0.0112043311819434,0.059300385415554,0.00455235643312335,-0.0110267754644156,0.059353981167078,-0.00760063715279102,0.00772579107433558,-0.748988330364227,0,0,0,0,0,0,0,0,0,0.930680751800537,0.00220496440306306,-0.00494994316250086,-0.365781307220459,0,25061.75,0,1002.46997070313,11.4375,6.54245645425231E-020,6.3190960277545E-035,-1.96942526997062E+024,0,-1.95632777563952E+037
138,0.477999985218048,65.0110092163086,0.0476972870528698,0.104054726660252,-0.112386740744114,-0.037118274718523,0.107794381678104,-0.112851187586784,-0.00892419833689928,0.00732058193534613,-0.750818252563477,0,0,0,0,0,0,0,0,0,0.930344462394714,0.00176929193548858,-0.00549335917457938,-0.366630434989929,0,25061.75,0,1002.46997070313,11.4375,-0.492644488811493,6.17989326244939E-038,-0.00000000000134906517,0,3.12218549163896E-025
138,0.477999985218048,65.1113967895508,0.0100799780339003,0.0115847950801253,-0.076909102499485,-0.00107028475031257,0.014730173163116,-0.0770233869552612,-0.0074417251162231,0.00802779011428356,-0.748484075069428,0,0,0,0,0,0,0,0,0,0.93077278137207,0.00237580621615052,-0.0049306289292872,-0.36554628610611,0,25061.75,0,1002.46997070313,11.4375,-7.1883687358173E+025,-8.10938348910538E+037,-4.47574538669777E-016,0,4.53181945645446E+025
138,0.477999985218048,65.2251968383789,0.0658943653106689,0.07814871519804,-0.169605299830437,-0.00678500765934587,0.100843504071236,-0.170291438698769,-0.00875873118638992,0.00729733891785145,-0.752397060394287,0,0,0,0,0,0,0,0,0,0.930055022239685,0.00178454210981727,-0.00541353831067681,-0.36736524105072,0,25060.875,0,1002.43499755859,11.4375,0.00000000004563852074,nan,8.57289444453153E+023,0,1.13012038367492E-034
138,0.477999985218048,65.3255920410156,0.0753803327679634,-0.0209106616675854,-0.0904312506318092,0.0686127468943596,0.0354074127972126,-0.0912996977567673,-0.00838954094797373,0.00811547879129648,-0.750942707061768,0,0,0,0,0,0,0,0,0,0.930321514606476,0.00223673949949443,-0.00539050810039043,-0.366687506437302,0,25060.875,0,1002.43499755859,11.4375,6.54245645425231E-020,6.3190960277545E-035,-1.96942526997062E+024,0,-1.95632777563952E+037
138,0.477999985218048,65.4259872436523,0.0662610679864883,0.0485870204865932,-0.0114536667242646,0.0152844069525599,0.0806034207344055,-0.0123198656365275,-0.00723763555288315,0.00936481449753046,-0.749948620796204,0,0,0,0,0,0,0,0,0,0.930503189563751,0.00303162261843681,-0.00508224172517657,-0.366225004196167,0,25060.875,0,1002.43499755859,11.4375,-0.492644488811493,6.17989326244939E-038,-0.00000000000134906517,0,3.12218549163896E-025
138,0.477999985218048,65.5397796630859,-0.000767249148339033,-0.0298448987305164,-0.0412359610199928,0.019515136256814,-0.0227992385625839,-0.0411220565438271,-0.00533898174762726,0.00966152548789978,-0.747930467128754,0,0,0,0,0,0,0,0,0,0.930872917175293,0.00352165708318353,-0.00424967333674431,-0.365290433168411,0,25061.1875,0,1002.44750976563,11.4375,-7.1883687358173E+025,-8.10938348910538E+037,-4.47574538669777E-016,0,4.53181945645446E+025
138,0.477999985218048,65.6401672363281,0.150717958807945,0.0922948718070984,-0.0318842306733131,0.0477575324475765,0.169766545295715,-0.0338947735726833,-0.00465384963899851,0.0105224289000034,-0.74682754278183,0,0,0,0,0,0,0,0,0,0.931072652339935,0.00404975097626448,-0.00408579595386982,-0.364777117967606,0,25061.1875,0,1002.44750976563,11.4375,0.00000000004563852074,nan,8.57289444453153E+023,0,1.13012038367492E-034
138,0.477999985218048,65.7405624389648,0.118146643042564,0.0918900445103645,-0.0325498953461647,0.0240689162164927,0.147394418716431,-0.0340161174535751,-0.00487382803112268,0.00914139021188021,-0.747175514698029,0,0,0,0,0,0,0,0,0,0.931011736392975,0.00336601654998958,-0.00393690308555961,-0.364941298961639,0,25061.1875,0,1002.44750976563,11.4375,6.54245645425231E-020,6.3190960277545E-035,-1.96942526997062E+024,0,-1.95632777563952E+037
138,0.477999985218048,65.840950012207,-0.0202898103743792,0.0168150570243597,0.0233907327055931,-0.02619887329638,-0.00117875565774739,0.0235320795327425,-0.00487580476328731,0.0103860637173057,-0.746053814888001,0,0,0,0,0,0,0,0,0,0.931214094161987,0.00394739396870136,-0.0041627255268395,-0.364416599273682,0,25061.1875,0,1002.44750976563,11.4375,-0.492644488811493,6.17989326244939E-038,-0.00000000000134906517,0,3.12218549163896E-025
138,0.477999985218048,65.9547500610352,0.0594631694257259,0.0930248573422432,-0.0400076285004616,-0.0198417417705059,0.108293153345585,-0.0408506505191326,-0.0093592032790184,0.00946954824030399,-0.746018946170807,0,0,0,0,0,0,0,0,0,0.931218504905701,0.00270378380082548,-0.00608317321166396,-0.364389419555664,0,25061.5,0,1002.46002197266,11.4375,-7.1883687358173E+025,-8.10938348910538E+037,-4.47574538669777E-016,0,4.53181945645446E+025
138,0.477999985218048,66.0551376342773,0.0310707800090313,0.0335577949881554,-0.0551863089203835,-0.000481707189464942,0.0453397445380688,-0.0555071160197258,-0.00811485666781664,0.00710084894672036,-0.747676432132721,0,0,0,0,0,0,0,0,0,0.930920481681824,0.00182342831976712,-0.00507373828440905,-0.365171015262604,0,25061.5,0,1002.46002197266,11.4375,0.00000000004563852074,nan,8.57289444453153E+023,0,1.13012038367492E-034
138,0.477999985218048,66.1555328369141,0.0629310607910156,0.0787585228681564,-0.0188274756073952,-0.00735156005248427,0.100381158292294,-0.0196749102324247,-0.00515034608542919,0.00881091970950365,-0.746178984642029,0,0,0,0,0,0,0,0,0,0.931193888187408,0.0031637167558074,-0.00400374690070748,-0.364477306604385,0,25061.5,0,1002.46002197266,11.4375,6.54245645425231E-020,6.3190960277545E-035,-1.96942526997062E+024,0,-1.95632777563952E+037
138,0.477999985218048,66.2559204101563,0.0897963121533394,0.0723925679922104,0.00294967647641897,0.0168076790869236,0.114134185016155,0.00185504811815918,-0.00488229840993881,0.00887258350849152,-0.746178269386292,0,0,0,0,0,0,0,0,0,0.931194126605988,0.00324128102511168,-0.00389018096029758,-0.364477604627609,0,25061.5,0,1002.46002197266,11.4375,-0.492644488811493,6.17989326244939E-038,-0.00000000000134906517,0,3.12218549163896E-025
138,0.477999985218048,66.3697128295898,0.0225963946431875,0.128181010484695,-0.069645918905735,-0.0710626468062401,0.108836844563484,-0.0699700638651848,-0.00652551092207432,0.0072139548137784,-0.747900903224945,0,0,0,0,0,0,0,0,0,0.930881023406982,0.00216580019332468,-0.00435485690832138,-0.365278959274292,0,25061.3125,0,1002.45251464844,11.4375,-7.1883687358173E+025,-8.10938348910538E+037,-4.47574538669777E-016,0,4.53181945645446E+025
138,0.477999985218048,66.470100402832,0.224211677908897,0.098866194486618,0.0542440041899681,0.0976966246962547,0.225233346223831,0.052077692002058,-0.00761843658983707,0.00632312288507819,-0.747223317623138,0,0,0,0,0,0,0,0,0,0.931004405021668,0.00155313825234771,-0.00470032123848796,-0.36496314406395,0,25061.3125,0,1002.45251464844,11.4375,0.00000000004563852074,nan,8.57289444453153E+023,0,1.13012038367492E-034
138,0.477999985218048,66.5705032348633,0.0659700334072113,0.0220083612948656,0.0169801339507103,0.0334544256329536,0.061154168099165,0.0162980072200298,-0.00904788449406624,0.00621871324256063,-0.749432802200317,0,0,0,0,0,0,0,0,0,0.930598855018616,0.00123776239342988,-0.00534804770722985,-0.365988522768021,0,25061.3125,0,1002.45251464844,11.4375,6.54245645425231E-020,6.3190960277545E-035,-1.96942526997062E+024,0,-1.95632777563952E+037
138,0.477999985218048,66.6708908081055,0.00764427101239562,0.00492183957248926,0.0233249291777611,0.00235271174460649,0.00898645911365747,0.0232467167079449,-0.00342585332691669,0.00788106583058834,-0.746079921722412,0,0,0,0,0,0,0,0,0,0.931213796138763,0.00304521806538105,-0.00303121912293136,-0.364436894655228,0,25061.1875,0,1002.44750976563,11.4375,-0.492644488811493,6.17989326244939E-038,-0.00000000000134906517,0,3.12218549163896E-025
138,0.477999985218048,66.7846908569336,-0.0173145718872547,-0.0807520374655724,-0.0345583334565163,0.0418108180165291,-0.0714452341198921,-0.0340921133756638,-0.00379480817355216,0.00876448769122362,-0.743913412094116,0,0,0,0,0,0,0,0,0,0.931606709957123,0.0033929543569684,-0.00336030893959105,-0.363425701856613,0,25061.1875,0,1002.44750976563,11.4375,-7.1883687358173E+025,-8.10938348910538E+037,-4.47574538669777E-016,0,4.53181945645446E+025
138,0.477999985218048,66.8850784301758,0.0224298369139433,0.0170297846198082,-0.0768843069672585,0.00458190450444818,0.027081036940217,-0.0771351009607315,-0.00539787346497178,0.00823258329182863,-0.743021726608276,0,0,0,0,0,0,0,0,0,0.931768953800201,0.00285566551610827,-0.00400909641757607,-0.363007456064224,0,25061.1875,0,1002.44750976563,11.4375,0.00000000004563852074,nan,8.57289444453153E+023,0,1.13012038367492E-034
138,0.477999985218048,66.9854965209961,-0.00214170175604522,0.00571664143353701,0.0378131493926048,-0.00522754760459065,0.00311478320509195,0.0378159806132317,-0.00566663080826402,0.00921422336250544,-0.742059648036957,0,0,0,0,0,0,0,0,0,0.93194180727005,0.00326628633774817,-0.00431090593338013,-0.362556457519531,0,25061.1875,0,1002.44750976563,11.4375,6.54245645425231E-020,6.3190960277545E-035,-1.96942526997062E+024,0,-1.95632777563952E+037
138,0.477999985218048,67.0992889404297,0.1463782787323,-0.0180844757705927,-0.0825043097138405,0.119157783687115,0.08531254529953,-0.0841626599431038,-0.00909251719713211,0.00668402528390288,-0.744392693042755,0,0,0,0,0,0,0,0,0,0.931517899036408,0.00145984359551221,-0.00545030273497105,-0.363640904426575,0,25061.125,0,1002.44500732422,11.4375,-0.492644488811493,6.17989326244939E-038,-0.00000000000134906517,0,3.12218549163896E-025
138,0.477999985218048,67.1996765136719,0.0757415816187859,0.124898508191109,-0.0328350439667702,-0.0289437249302864,0.142926067113876,-0.0338910669088364,-0.00735592423006892,0.00886469800025225,-0.742920696735382,0,0,0,0,0,0,0,0,0,0.931784987449646,0.00279499404132366,-0.00503590749576688,-0.362953901290894,0,25061.125,0,1002.44500732422,11.4375,-7.1883687358173E+025,-8.10938348910538E+037,-4.47574538669777E-016,0,4.53181945645446E+025
138,0.477999985218048,67.3000717163086,0.0960227176547051,0.0975949540734291,-0.0250587835907936,0.00470304535701871,0.136541813611984,-0.0265890881419182,-0.00611874181777239,0.0109833693131804,-0.741799116134644,0,0,0,0,0,0,0,0,0,0.931985557079315,0.00400932133197784,-0.00484175840392709,-0.362429678440094,0,25061.125,0,1002.44500732422,11.4375,0.00000000004563852074,nan,8.57289444453153E+023,0,1.13012038367492E-034
138,0.477999985218048,67.4004669189453,0.0176521185785532,0.0789550691843033,0.0739154443144798,-0.0400395020842552,0.0705225914716721,0.0737034901976585,-0.00775608094409108,0.00746148498728871,-0.745869874954224,0,0,0,0,0,0,0,0,0,0.931250095367432,0.00206129346042871,-0.00497072981670499,-0.364329993724823,0,25061.125,0,1002.44500732422,11.4375,6.54245645425231E-020,6.3190960277545E-035,-1.96942526997062E+024,0,-1.95632777563952E+037
138,0.477999985218048,67.5142669677734,0.0105192735791206,0.0178005062043667,0.00201316829770803,-0.00432767812162638,0.0202315524220467,0.00187467713840306,-0.00630795583128929,0.00819903053343296,-0.745239794254303,0,0,0,0,0,0,0,0,0,0.931365191936493,0.00266992766410112,-0.00442996295168996,-0.364038407802582,0,25060.75,0,1002.42999267578,11.4375,-0.492644488811493,6.17989326244939E-038,-0.00000000000134906517,0,3.12218549163896E-025
138,0.477999985218048,67.6146469116211,0.0361388735473156,-0.00371903018094599,-0.0911322012543678,0.0283501725643873,0.0212462358176708,-0.0914857164025307,-0.00736950011923909,0.00662888260558248,-0.747927784919739,0,0,0,0,0,0,0,0,0,0.930875897407532,0.00173926551360637,-0.00464084930717945,-0.365290910005569,0,25060.75,0,1002.42999267578,11.4375,-7.1883687358173E+025,-8.10938348910538E+037,-4.47574538669777E-016,0,4.53181945645446E+025
138,0.477999985218048,67.7150421142578,0.0964589938521385,0.0652534887194634,-0.0330467596650124,0.0264943689107895,0.113089509308338,-0.0341030992567539,-0.00462607946246862,0.00824601016938686,-0.745159506797791,0,0,0,0,0,0,0,0,0,0.931380689144135,0.0029981080442667,-0.00365517335012555,-0.364004969596863,0,25060.75,0,1002.42999267578,11.4375,0.00000000004563852074,nan,8.57289444453153E+023,0,1.13012038367492E-034
138,0.477999985218048,67.8154373168945,0.111657842993736,-0.00427682092413306,0.0247106179594994,0.0851741880178452,0.0727187395095825,0.0235268454998732,-0.00523133343085647,0.0101701356470585,-0.744050264358521,0,0,0,0,0,0,0,0,0,0.931578993797302,0.0037863664329052,-0.00428512739017606,-0.363482981920242,0,25060.75,0,1002.42999267578,11.4375,6.54245645425231E-020,6.3190960277545E-035,-1.96942526997062E+024,0,-1.95632777563952E+037
138,0.477999985218048,67.9292297363281,0.0790654197335243,0.07232416421175,0.0319022759795189,0.00930439308285713,0.107087828218937,0.0307458769530058,-0.00564873358234763,0.0103257084265351,-0.744643032550812,0,0,0,0,0,0,0,0,0,0.93147087097168,0.0037816297262907,-0.00450894189998508,-0.3637575507164,0,25060.75,0,1002.42999267578,11.4375,-0.492644488811493,6.17989326244939E-038,-0.00000000000134906517,0,3.12218549163896E-025
138,0.477999985218048,68.0296173095703,0.144548296928406,0.0958142057061195,-0.0390491858124733,0.0413339771330357,0.167954817414284,-0.0410071238875389,-0.006776487454772,0.00997434556484222,-0.743197619915009,0,0,0,0,0,0,0,0,0,0.931733429431915,0.00341644557192922,-0.0049678017385304,-0.363081783056259,0,25060.75,0,1002.42999267578,11.4375,-7.1883687358173E+025,-8.10938348910538E+037,-4.47574538669777E-016,0,4.53181945645446E+025
138,0.477999985218048,68.1300048828125,0.0480688735842705,0.166153088212013,0.096196137368679,-0.0761968195438385,0.155669674277306,0.0955591425299645,-0.00998299289494753,0.00902969669550657,-0.744026303291321,0,0,0,0,0,0,0,0,0,0.931580901145935,0.00239158980548382,-0.00629109423607588,-0.363460958003998,0,25060.75,0,1002.42999267578,11.4375,0.00000000004563852074,nan,8.57289444453153E+023,0,1.13012038367492E-034
138,0.477999985218048,68.2438049316406,0.0482740998268127,0.0318027846515179,-0.0189571753144264,0.0137856788933277,0.0559433102607727,-0.0195300169289112,-0.00812398083508015,0.0082175275310874,-0.744715809822083,0,0,0,0,0,0,0,0,0,0.93145889043808,0.00234934780746698,-0.00527840154245496,-0.363789677619934,0,25060.5,0,1002.41998291016,11.4375,6.54245645425231E-020,6.3190960277545E-035,-1.96942526997062E+024,0,-1.95632777563952E+037
138,0.477999985218048,68.3442001342773,-0.0552836395800114,0.00708766840398312,-0.0130243683233857,-0.0455592721700668,-0.0323243401944637,-0.0124734723940492,-0.00612015835940838,0.00843472871929407,-0.743846237659454,0,0,0,0,0,0,0,0,0,0.931618511676788,0.00281692901626229,-0.00438344897702336,-0.3633893430233,0,25060.5,0,1002.41998291016,11.4375,-0.492644488811493,6.17989326244939E-038,-0.00000000000134906517,0,3.12218549163896E-025
138,0.477999985218048,68.4445953369141,-0.0338038429617882,-0.0648543238639832,-0.013006248511374,0.0188604407012463,-0.0707534402608871,-0.0124936494976282,-0.00540585536509752,0.00869388692080975,-0.742317497730255,0,0,0,0,0,0,0,0,0,0.931895971298218,0.00307057239115238,-0.00409546215087175,-0.362678378820419,0,25060.5,0,1002.41998291016,11.4375,-7.1883687358173E+025,-8.10938348910538E+037,-4.47574538669777E-016,0,4.53181945645446E+025
138,0.477999985218048,68.5449752807617,-0.0215836614370346,0.0175097342580557,-0.0341310873627663,-0.0280123073607683,-0.00198494573123753,-0.0338927134871483,-0.0079940352588892,0.00826874189078808,-0.742935240268707,0,0,0,0,0,0,0,0,0,0.931782484054565,0.00240149139426649,-0.00522506237030029,-0.362960487604141,0,25060.5,0,1002.41998291016,11.4375,0.00000000004563852074,nan,8.57289444453153E+023,0,1.13012038367492E-034
138,0.477999985218048,68.6587829589844,0.00193116790615022,-0.0370838455855846,-0.0485220327973366,0.0262162983417511,-0.0263075772672892,-0.0485168509185314,-0.00612097093835473,0.00635356735438108,-0.743176341056824,0,0,0,0,0,0,0,0,0,0.931742548942566,0.00184869708027691,-0.00400507031008601,-0.363081604242325,0,25060.375,0,1002.41497802734,11.4375,6.54245645425231E-020,6.3190960277545E-035,-1.96942526997062E+024,0,-1.95632777563952E+037
138,0.477999985218048,68.7591705322266,0.152410194277763,0.194989576935768,-0.0328922644257545,-0.0205723084509373,0.246460184454918,-0.0341299995779991,-0.00723405508324504,0.00562132615596056,-0.745699465274811,0,0,0,0,0,0,0,0,0,0.931283235549927,0.00129994482267648,-0.00439233612269163,-0.364256083965302,0,25060.375,0,1002.41497802734,11.4375,-0.492644488811493,6.17989326244939E-038,-0.00000000000134906517,0,3.12218549163896E-025
138,0.477999985218048,68.8595581054688,-0.0100015997886658,-0.036479827016592,-0.0558185949921608,0.0170535501092672,-0.0340021140873432,-0.0556730143725872,-0.00559042487293482,0.00713954214006662,-0.744576513767242,0,0,0,0,0,0,0,0,0,0.931487739086151,0.00230845063924789,-0.00390220736153424,-0.363733381032944,0,25060.375,0,1002.41497802734,11.4375,-7.1883687358173E+025,-8.10938348910538E+037,-4.47574538669777E-016,0,4.53181945645446E+025
138,0.477999985218048,68.9599533081055,0.0442039854824543,0.00758964335545898,-0.0623817816376686,0.0270253587514162,0.0350407846271992,-0.0628073066473007,-0.00603832583874464,0.00741951586678624,-0.743465602397919,0,0,0,0,0,0,0,0,0,0.931688904762268,0.00235969386994839,-0.00416042236611247,-0.363214373588562,0,25060.375,0,1002.41497802734,11.4375,0.00000000004563852074,nan,8.57289444453153E+023,0,1.13012038367492E-034
138,0.477999985218048,69.0737533569336,0.16315022110939,0.0295613277703524,-0.0621109381318092,0.0998756065964699,0.131892070174217,-0.0630751624703407,-0.00226316601037979,0.00559202861040831,-0.744023144245148,0,0,0,0,0,0,0,0,0,0.931591212749481,0.00219342671334743,-0.00207049795426428,-0.363484054803848,0,25060.125,0,1002.40502929688,11.4375,6.54245645425231E-020,6.3190960277545E-035,-1.96942526997062E+024,0,-1.95632777563952E+037
138,0.477999985218048,69.1741409301758,0.00972038973122835,0.00910236593335867,0.0160293206572533,0.00106561230495572,0.0133738918229938,0.0159459952265024,-0.0035573267377913,0.00596637697890401,-0.742408812046051,0,0,0,0,0,0,0,0,0,0.931883752346039,0.00213479902595282,-0.00273962737992406,-0.362729489803314,0,25060.125,0,1002.40502929688,11.4375,-0.492644488811493,6.17989326244939E-038,-0.00000000000134906517,0,3.12218549163896E-025
138,0.477999985218048,69.274528503418,0.111199423670769,0.0344961807131767,-0.0119419479742646,0.0584011450409889,0.100620083510876,-0.0127513082697988,-0.0050331330858171,0.00512018473818898,-0.743922233581543,0,0,0,0,0,0,0,0,0,0.931609034538269,0.00147037603892386,-0.00327491411007941,-0.363433361053467,0,25060.125,0,1002.40502929688,11.4375,-7.1883687358173E+025,-8.10938348910538E+037,-4.47574538669777E-016,0,4.53181945645446E+025
138,0.477999985218048,69.3749237060547,0.0670484006404877,0.0709892362356186,-0.0402927771210671,0.00110582017805427,0.0972946435213089,-0.0411195158958435,-0.00721943657845259,0.00839304272085428,-0.74255234003067,0,0,0,0,0,0,0,0,0,0.931852519512177,0.00260092434473336,-0.00488624535501003,-0.362783759832382,0,25060.5,0,1002.41998291016,11.4375,0.00000000004563852074,nan,8.57289444453153E+023,0,1.13012038367492E-034
138,0.477999985218048,69.4887237548828,0.0520191416144371,0.118240207433701,-0.0765476599335671,-0.0428678095340729,0.121715687215328,-0.0767695158720017,-0.0117113310843706,0.00589865632355213,-0.745406687259674,0,0,0,0,0,0,0,0,0,0.93132883310318,0.000614546413999051,-0.00652754819020629,-0.364109128713608,0,25060.5,0,1002.41998291016,11.4375,6.54245645425231E-020,6.3190960277545E-035,-1.96942526997062E+024,0,-1.95632777563952E+037
138,0.477999985218048,69.589111328125,-0.0311444420367479,0.103333584964275,-0.041447676718235,-0.0933058485388756,0.0544905215501785,-0.0411133207380772,-0.00806435197591782,0.0076326453126967,-0.745441496372223,0,0,0,0,0,0,0,0,0,0.93132758140564,0.00208593159914017,-0.00514500075951219,-0.364129334688187,0,25060.5,0,1002.41998291016,11.4375,-0.492644488811493,6.17989326244939E-038,-0.00000000000134906517,0,3.12218549163896E-025
138,0.477999985218048,69.6895065307617,-0.168396949768066,0.0517270714044571,0.0216827020049095,-0.158606871962547,-0.0761367902159691,0.0234500337392092,-0.00740217510610819,0.00777735048905015,-0.746089577674866,0,0,0,0,0,0,0,0,0,0.931210041046143,0.00227230857126415,-0.00486373249441385,-0.364432364702225,0,25060.5,0,1002.41998291016,11.4375,-7.1883687358173E+025,-8.10938348910538E+037,-4.47574538669777E-016,0,4.53181945645446E+025
138,0.477999985218048,69.8032989501953,0.0999725982546806,0.0525965578854084,0.0107612228021026,0.0379427894949913,0.106535032391548,0.00933531951159239,-0.00638964027166367,0.0111155156046152,-0.744573056697845,0,0,0,0,0,0,0,0,0,0.931481659412384,0.00401487853378058,-0.00499751465395093,-0.363720804452896,0,25060.125,0,1002.40502929688,11.4375,0.00000000004563852074,nan,8.57289444453153E+023,0,1.13012038367492E-034
138,0.477999985218048,69.903694152832,-0.00671663973480463,-0.0810993611812592,0.0378207787871361,0.0503108389675617,-0.0638133138418198,0.0380681194365025,-0.00805928092449904,0.0101849688217044,-0.74441260099411,0,0,0,0,0,0,0,0,0,0.931511282920837,0.00327826105058193,-0.00560563709586859,-0.363643288612366,0,25060.125,0,1002.40502929688,11.4375,6.54245645425231E-020,6.3190960277545E-035,-1.96942526997062E+024,0,-1.95632777563952E+037
138,0.477999985218048,70.0040817260742,0.0494128912687302,0.0918903425335884,-0.126162573695183,-0.0269064400345087,0.0997795909643173,-0.126972839236259,-0.00861432962119579,0.0103391828015447,-0.743462145328522,0,0,0,0,0,0,0,0,0,0.93168318271637,0.00325195607729256,-0.00589064694941044,-0.36319836974144,0,25060.125,0,1002.40502929688,11.4375,-0.492644488811493,6.17989326244939E-038,-0.00000000000134906517,0,3.12218549163896E-025
138,0.477999985218048,70.1044692993164,-0.0843236371874809,-0.100299201905727,0.0223960503935814,0.00597828440368176,-0.130683347582817,0.0236184187233448,-0.00745498249307275,0.00968298781663179,-0.743447601795197,0,0,0,0,0,0,0,0,0,0.931688070297241,0.00315687246620655,-0.00523138977587223,-0.36319699883461,0,25060.125,0,1002.40502929688,11.4375,-7.1883687358173E+025,-8.10938348910538E+037,-4.47574538669777E-016,0,4.53181945645446E+025
138,0.477999985218048,70.2182693481445,0.15166999399662,0.0723270773887634,-0.0676813498139381,0.0620936639606953,0.155255794525146,-0.0696796104311943,-0.00758894486352801,0.00980506557971239,-0.744009256362915,0,0,0,0,0,0,0,0,0,0.931585669517517,0.003187918337062,-0.00531685957685113,-0.363457888364792,0,25061.0625,0,1002.44250488281,11.4375,0.00000000004563852074,nan,8.57289444453153E+023,0,1.13012038367492E-034
138,0.477999985218048,70.3186645507813,-0.0176182258874178,-0.0457447320222855,-0.040919341146946,0.017564969137311,-0.045924574136734,-0.0407395958900452,-0.0114042684435844,0.00835784059017897,-0.744346976280212,0,0,0,0,0,0,0,0,0,0.931520819664001,0.0018192291026935,-0.00683129951357842,-0.363608241081238,0,25061.0625,0,1002.44250488281,11.4375,6.54245645425231E-020,6.3190960277545E-035,-1.96942526997062E+024,0,-1.95632777563952E+037
138,0.477999985218048,70.419059753418,-0.0133395045995712,0.0614017471671104,-0.04837516695261,-0.0519908629357815,0.0356608852744102,-0.0480980649590492,-0.0104434322565794,0.00735644157975912,-0.746512532234192,0,0,0,0,0,0,0,0,0,0.931129157543182,0.00152080657426268,-0.00620337296277285,-0.364622622728348,0,25061.0625,0,1002.44250488281,11.4375,-0.492644488811493,6.17989326244939E-038,-0.00000000000134906517,0,3.12218549163896E-025
138,0.477999985218048,70.5194396972656,0.108848921954632,0.088664636015892,0.0106410598382354,0.0198876783251762,0.139071255922318,0.00927778519690037,-0.00896718446165323,0.0085252933204174,-0.745778381824493,0,0,0,0,0,0,0,0,0,0.931263983249664,0.00233625061810017,-0.00572832720354199,-0.364281326532364,0,25061.0625,0,1002.44250488281,11.4375,-7.1883687358173E+025,-8.10938348910538E+037,-4.47574538669777E-016,0,4.53181945645446E+025
138,0.477999985218048,70.6332397460938,0.0160501897335053,-0.0178293567150831,-0.0193558111786842,0.0237215999513865,-0.00234499154612422,-0.0195426028221846,-0.00857555959373713,0.00757227139547467,-0.746155679225922,0,0,0,0,0,0,0,0,0,0.931196868419647,0.0019628182053566,-0.00537275988608599,-0.364460736513138,0,25060.5625,0,1002.42248535156,11.4375,0.00000000004563852074,nan,8.57289444453153E+023,0,1.13012038367492E-034
138,0.477999985218048,70.7336349487305,0.209557116031647,0.0935694351792336,0.0908403024077415,0.0908768177032471,0.211838662624359,0.0882394388318062,-0.00904833525419235,0.00842479709535837,-0.747588872909546,0,0,0,0,0,0,0,0,0,0.930933952331543,0.00226947036571801,-0.00574986496940255,-0.365124315023422,0,25060.5625,0,1002.42248535156,11.4375,6.54245645425231E-020,6.3190960277545E-035,-1.96942526997062E+024,0,-1.95632777563952E+037
138,0.477999985218048,70.8340225219727,0.109956748783588,0.00370668084360659,-0.0325842276215553,0.0781416520476341,0.0768978521227837,-0.0338577553629875,-0.0066829277202487,0.00974331051111221,-0.744392395019531,0,0,0,0,0,0,0,0,0,0.931516826152802,0.00332288397476077,-0.00488425930961967,-0.363639146089554,0,25060.5625,0,1002.42248535156,11.4375,-0.492644488811493,6.17989326244939E-038,-0.00000000000134906517,0,3.12218549163896E-025
138,0.477999985218048,70.9478149414062,0.0140708414837718,0.000114848800876644,-0.0410843268036842,0.010012480430305,0.00929368939250708,-0.0412222109735012,-0.00630964711308479,0.0078497938811779,-0.744318842887878,0,0,0,0,0,0,0,0,0,0.931533217430115,0.00250899721868336,-0.00436602765694261,-0.36361026763916,0,25060.875,0,1002.43499755859,11.4375,-7.1883687358173E+025,-8.10938348910538E+037,-4.47574538669777E-016,0,4.53181945645446E+025
138,0.477999985218048,71.048210144043,0.0271035190671682,-0.00798333808779717,-0.0838613882660866,0.0247597713023424,0.0117200957611203,-0.0841459184885025,-0.00700300093740225,0.00906853470951319,-0.744045615196228,0,0,0,0,0,0,0,0,0,0.931580722332001,0.00295125134289265,-0.00491013610735536,-0.363478451967239,0,25060.875,0,1002.43499755859,11.4375,0.00000000004563852074,nan,8.57289444453153E+023,0,1.13012038367492E-034
138,0.477999985218048,71.1486053466797,0.0053625232540071,0.010637266561389,0.0377788171172142,-0.00301922345533967,0.0117466878145933,0.0377096906304359,-0.00617430079728365,0.00759920943528414,-0.743492484092712,0,0,0,0,0,0,0,0,0,0.931683719158173,0.00241865054704249,-0.00425643147900701,-0.363226175308228,0,25060.875,0,1002.43499755859,11.4375,6.54245645425231E-020,6.3190960277545E-035,-1.96942526997062E+024,0,-1.95632777563952E+037
