msg_type,mass,time,ax,ay,az,ax_local,ay_local,az_local,pitch,roll,yaw,vx,vy,vz,vx_local,vy_local,vz_local,x,y,z,qw,qx,qy,qz,apogee,baro_altitude,altitude,baro_pressure,baro_temperature,air_pressure,air_density,air_temperature,drag_coefficient
138,0.4779999852180481,57.025665283203125,0.1670185774564743,-0.16272084414958954,0.021082840859889984,0.23227481544017792,-0.015888893976807594,0.024755118414759636,0.01492748036980629,0.012623310089111328,-0.7028341293334961,0.0,0.0,0.0,0.0,0.0,0.0,0.0,0.0,0.0,0.9388209581375122,0.008494863286614418,0.004834855906665325,-0.3442550003528595,0.0,25062.25,0.0,1002.489990234375,11.4375,6.542456454252315e-20,6.319096027754496e-35,-1.9694252699706225e+24,0.0,-1.9563277756395197e+37
138,0.4779999852180481,57.12605667114258,0.10931739211082458,0.02156604267656803,0.10992332547903061,0.06845209747552872,0.08844515681266785,0.10949836671352386,0.0047923605889081955,0.008563632145524025,-0.7084516882896423,0.0,0.0,0.0,0.0,0.0,0.0,0.0,0.0,0.0,0.9378966689109802,0.004847085569053888,0.0007622058037668467,-0.3468684256076813,0.0,25062.25,0.0,1002.489990234375,11.4375,-0.4926444888114929,6.179893262449391e-38,-1.3490651738085058e-12,0.0,3.1221854916389622e-25
138,0.4779999852180481,57.226444244384766,0.18227769434452057,0.02528531663119793,-0.08334258943796158,0.12123177945613861,0.13772642612457275,-0.08452295511960983,-0.001548208063468337,0.007195822428911924,-0.7128133773803711,0.0,0.0,0.0,0.0,0.0,0.0,0.0,0.0,0.0,0.9371474981307983,0.0031016934663057327,-0.00198079040274024,-0.3489026427268982,0.0,25062.25,0.0,1002.489990234375,11.4375,-7.188368735817304e+25,-8.109383489105384e+37,-4.475745386697772e-16,0.0,4.531819456454457e+25
138,0.4779999852180481,57.32683181762695,0.026855897158384323,0.1342398226261139,-0.04869464784860611,-0.06867185235023499,0.118465855717659,-0.04860461875796318,-0.007014548406004906,0.0032973045017570257,-0.7200612425804138,0.0,0.0,0.0,0.0,0.0,0.0,0.0,0.0,0.0,0.93587726354599,0.00030731072183698416,-0.003863229649141431,-0.3522934019565582,0.0,25062.25,0.0,1002.489990234375,11.4375,4.563852074035424e-11,nan,8.572894444531533e+23,0.0,1.1301203836749174e-34
138,0.4779999852180481,57.42764663696289,0.060742300003767014,0.07671133428812027,-0.02658180147409439,-0.005285774823278189,0.09758879244327545,-0.02700316533446312,-0.007139076478779316,0.004696627147495747,-0.7218451499938965,0.0,0.0,0.0,0.0,0.0,0.0,0.0,0.0,0.0,0.9355621337890625,0.0009364534635096788,-0.0041688233613967896,-0.35312506556510925,0.0,25057.375,0.0,1002.2949829101562,11.3125,6.542456454252315e-20,6.319096027754496e-35,-1.9694252699706225e+24,0.0,-1.9563277756395197e+37
138,0.4779999852180481,57.52803421020508,0.07351458072662354,0.09542152285575867,-0.06238464266061783,-0.008602214977145195,0.11989090591669083,-0.06287591904401779,-0.007477841805666685,0.004618281498551369,-0.7240367531776428,0.0,0.0,0.0,0.0,0.0,0.0,0.0,0.0,0.0,0.9351741671562195,0.0008352616569027305,-0.0043143765069544315,-0.35414958000183105,0.0,25057.375,0.0,1002.2949829101562,11.3125,-0.4926444888114929,6.179893262449391e-38,-1.3490651738085058e-12,0.0,3.1221854916389622e-25
138,0.4779999852180481,57.62842559814453,0.07578881084918976,0.14196784794330597,-0.03381256014108658,-0.03837982937693596,0.15623106062412262,-0.03406627103686333,-0.009053066372871399,0.003839263692498207,-0.7292159795761108,0.0,0.0,0.0,0.0,0.0,0.0,0.0,0.0,0.0,0.9342516660690308,0.000179332317202352,-0.004913467913866043,-0.35656923055648804,0.0,25057.375,0.0,1002.2949829101562,11.3125,-7.188368735817304e+25,-8.109383489105384e+37,-4.475745386697772e-16,0.0,4.531819456454457e+25
138,0.4779999852180481,57.72881317138672,0.0983385518193245,0.2656511068344116,0.06652065366506577,-0.10376300662755966,0.26361384987831116,0.06637457013130188,-0.00839927513152361,0.0038691165391355753,-0.731711745262146,0.0,0.0,0.0,0.0,0.0,0.0,0.0,0.0,0.0,0.9338070750236511,0.00030408723978325725,-0.004613770171999931,-0.357735812664032,0.0,25057.375,0.0,1002.2949829101562,11.3125,4.563852074035424e-11,nan,8.572894444531533e+23,0.0,1.1301203836749174e-34
138,0.4779999852180481,57.84261703491211,0.11145617067813873,0.02509252168238163,-0.02579883486032486,0.06561136990785599,0.09323512762784958,-0.026829732581973076,-0.00942939892411232,0.004408173728734255,-0.7349659204483032,0.0,0.0,0.0,0.0,0.0,0.0,0.0,0.0,0.0,0.9332219958305359,0.00036306233960203826,-0.00519175548106432,-0.35925158858299255,0.0,25061.4375,0.0,1002.45751953125,11.375,6.542456454252315e-20,6.319096027754496e-35,-1.9694252699706225e+24,0.0,-1.9563277756395197e+37
138,0.4779999852180481,57.9430046081543,0.05911755561828613,0.07519648224115372,-0.04080871492624283,-0.0067978729493916035,0.09519775211811066,-0.04130071774125099,-0.00729353167116642,0.005674143321812153,-0.7342652678489685,0.0,0.0,0.0,0.0,0.0,0.0,0.0,0.0,0.0,0.9333503842353821,0.0013390087988227606,-0.0044220671989023685,-0.3589257001876831,0.0,25061.4375,0.0,1002.45751953125,11.375,-0.4926444888114929,6.179893262449391e-38,-1.3490651738085058e-12,0.0,3.1221854916389622e-25
138,0.4779999852180481,58.043392181396484,0.09224197268486023,0.12411075830459595,0.12472721189260483,-0.01384760718792677,0.15469014644622803,0.12388503551483154,-0.008013647980988026,0.0061964490450918674,-0.7353155016899109,0.0,0.0,0.0,0.0,0.0,0.0,0.0,0.0,0.0,0.9331604838371277,0.0014509651809930801,-0.004852624144405127,-0.3594130575656891,0.0,25061.4375,0.0,1002.45751953125,11.375,-7.188368735817304e+25,-8.109383489105384e+37,-4.475745386697772e-16,0.0,4.531819456454457e+25
138,0.4779999852180481,58.14378356933594,0.07653705775737762,0.11733922362327576,-0.018841780722141266,-0.022112907841801643,0.1382220834493637,-0.01966683566570282,-0.0073914239183068275,0.00714537501335144,-0.735475480556488,0.0,0.0,0.0,0.0,0.0,0.0,0.0,0.0,0.0,0.9331316947937012,0.002005163347348571,-0.004732995294034481,-0.35948681831359863,0.0,25061.4375,0.0,1002.45751953125,11.375,4.563852074035424e-11,nan,8.572894444531533e+23,0.0,1.1301203836749174e-34
138,0.4779999852180481,58.25758361816406,0.01875685714185238,0.050320111215114594,-0.01921180635690689,-0.019970223307609558,0.04970879852771759,-0.019575485959649086,-0.005706055089831352,0.009587534703314304,-0.7356308102607727,0.0,0.0,0.0,0.0,0.0,0.0,0.0,0.0,0.0,0.9331017136573792,0.0034472059924155474,-0.004385891370475292,-0.35955801606178284,0.0,25062.3125,0.0,1002.4924926757812,11.375,6.542456454252315e-20,6.319096027754496e-35,-1.9694252699706225e+24,0.0,-1.9563277756395197e+37
138,0.4779999852180481,58.35797119140625,-0.0038972506299614906,0.04186925292015076,-0.09116271883249283,-0.03192261978983879,0.027572423219680786,-0.09110110253095627,-0.009859996847808361,0.008915967307984829,-0.7370214462280273,0.0,0.0,0.0,0.0,0.0,0.0,0.0,0.0,0.0,0.9328484535217285,0.0023827170953154564,-0.0062048290856182575,-0.36019665002822876,0.0,25062.3125,0.0,1002.4924926757812,11.375,-0.4926444888114929,6.179893262449391e-38,-1.3490651738085058e-12,0.0,3.1221854916389622e-25
138,0.4779999852180481,58.45835876464844,0.02408832684159279,0.0754542201757431,0.1170940026640892,-0.031926922500133514,0.07285082340240479,0.11686612665653229,-0.009127166122198105,0.00722372904419899,-0.7387205362319946,0.0,0.0,0.0,0.0,0.0,0.0,0.0,0.0,0.0,0.9325448274612427,0.0017206886550411582,-0.005559712648391724,-0.36099591851234436,0.0,25062.3125,0.0,1002.4924926757812,11.375,-7.188368735817304e+25,-8.109383489105384e+37,-4.475745386697772e-16,0.0,4.531819456454457e+25
138,0.4779999852180481,58.55875015258789,0.09831405431032181,0.1340942680835724,-0.09010700136423111,-0.01873028837144375,0.1645631343126297,-0.09128952771425247,-0.00851240660995245,0.008121068589389324,-0.7408938407897949,0.0,0.0,0.0,0.0,0.0,0.0,0.0,0.0,0.0,0.9321520328521729,0.0022441602777689695,-0.005437478423118591,-0.3620082437992096,0.0,25061.1875,0.0,1002.447509765625,11.375,4.563852074035424e-11,nan,8.572894444531533e+23,0.0,1.1301203836749174e-34
138,0.4779999852180481,58.672550201416016,0.14828424155712128,0.15986785292625427,0.06092926114797592,0.0014083818532526493,0.21846875548362732,0.05938795953989029,-0.008655048906803131,0.007014206610620022,-0.7437846064567566,0.0,0.0,0.0,0.0,0.0,0.0,0.0,0.0,0.0,0.9316287636756897,0.0016947892727330327,-0.005306067876517773,-0.3633577823638916,0.0,25061.1875,0.0,1002.447509765625,11.375,6.542456454252315e-20,6.319096027754496e-35,-1.9694252699706225e+24,0.0,-1.9563277756395197e+37
138,0.4779999852180481,58.772945404052734,0.05882553383708,0.055888619273900986,-0.04051021486520767,0.004975090268999338,0.08067474514245987,-0.04113103449344635,-0.008290714584290981,0.007157736457884312,-0.7454922795295715,0.0,0.0,0.0,0.0,0.0,0.0,0.0,0.0,0.0,0.9313185214996338,0.0018234364688396454,-0.00516399135813117,-0.364153653383255,0.0,25061.1875,0.0,1002.447509765625,11.375,-0.4926444888114929,6.179893262449391e-38,-1.3490651738085058e-12,0.0,3.1221854916389622e-25
138,0.4779999852180481,58.87333297729492,0.05434561148285866,0.040449950844049454,-0.01186374668031931,0.012575416825711727,0.06645181030035019,-0.012503291480243206,-0.005314607638865709,0.008610471151769161,-0.7432894110679626,0.0,0.0,0.0,0.0,0.0,0.0,0.0,0.0,0.0,0.9317198395729065,0.0030462907161563635,-0.004039299674332142,-0.363131582736969,0.0,25061.1875,0.0,1002.447509765625,11.375,-7.188368735817304e+25,-8.109383489105384e+37,-4.475745386697772e-16,0.0,4.531819456454457e+25
138,0.4779999852180481,58.987125396728516,0.08413893729448318,0.03442399576306343,-0.11954883486032486,0.03747512027621269,0.08176062256097794,-0.1202777624130249,-0.0071706571616232395,0.0055802008137106895,-0.7471526265144348,0.0,0.0,0.0,0.0,0.0,0.0,0.0,0.0,0.0,0.9310183525085449,0.0012891772203147411,-0.00435626320540905,-0.3649328351020813,0.0,25061.125,0.0,1002.4450073242188,11.375,4.563852074035424e-11,nan,8.572894444531533e+23,0.0,1.1301203836749174e-34
138,0.4779999852180481,59.0875244140625,0.03583075478672981,0.030980607494711876,0.009390792809426785,0.005353083368390799,0.04713989421725273,0.008998132310807705,-0.006052347365766764,0.007650138344615698,-0.7458155751228333,0.0,0.0,0.0,0.0,0.0,0.0,0.0,0.0,0.0,0.931261420249939,0.0024596352595835924,-0.004211729392409325,-0.3643083870410919,0.0,25061.125,0.0,1002.4450073242188,11.375,6.542456454252315e-20,6.319096027754496e-35,-1.9694252699706225e+24,0.0,-1.9563277756395197e+37
138,0.4779999852180481,59.18791198730469,0.07809681445360184,0.024057289585471153,-0.04055694490671158,0.04083581641316414,0.0703495666384697,-0.04130341857671738,-0.005360879935324192,0.0074790408834815025,-0.7456185817718506,0.0,0.0,0.0,0.0,0.0,0.0,0.0,0.0,0.0,0.9312978386878967,0.002506308490410447,-0.003858348121866584,-0.364218533039093,0.0,25061.125,0.0,1002.4450073242188,11.375,-0.4926444888114929,6.179893262449391e-38,-1.3490651738085058e-12,0.0,3.1221854916389622e-25
138,0.4779999852180481,59.288299560546875,0.08197909593582153,0.009288639761507511,-0.011728324927389622,0.05385291948914528,0.06234586238861084,-0.01253592036664486,-0.006230960600078106,0.007563387975096703,-0.7455915212631226,0.0,0.0,0.0,0.0,0.0,0.0,0.0,0.0,0.0,0.9313020706176758,0.0023871834855526686,-0.004278827924281359,-0.3642037808895111,0.0,25061.125,0.0,1002.4450073242188,11.375,-7.188368735817304e+25,-8.109383489105384e+37,-4.475745386697772e-16,0.0,4.531819456454457e+25
138,0.4779999852180481,59.402095794677734,0.13874852657318115,0.10497751832008362,-0.04694751650094986,0.031010739505290985,0.17077119648456573,-0.048482056707143784,-0.004164752550423145,0.008219956420361996,-0.7427441477775574,0.0,0.0,0.0,0.0,0.0,0.0,0.0,0.0,0.0,0.9318197965621948,0.00307408906519413,-0.0034318852704018354,-0.36288100481033325,0.0,25061.4375,0.0,1002.45751953125,11.4375,4.563852074035424e-11,nan,8.572894444531533e+23,0.0,1.1301203836749174e-34
138,0.4779999852180481,59.50249099731445,-0.0008375469478778541,0.04253227263689041,-0.06278613954782486,-0.02982802502810955,0.030244892463088036,-0.06282704323530197,-0.005979752633720636,0.0071761454455554485,-0.7450649738311768,0.0,0.0,0.0,0.0,0.0,0.0,0.0,0.0,0.0,0.9313985705375671,0.002253689104691148,-0.004090741742402315,-0.363959938287735,0.0,25061.4375,0.0,1002.45751953125,11.4375,6.542456454252315e-20,6.319096027754496e-35,-1.9694252699706225e+24,0.0,-1.9563277756395197e+37
138,0.4779999852180481,59.60287857055664,0.03311789408326149,0.0945369079709053,0.01671215146780014,-0.03963630273938179,0.09209427982568741,0.01614796370267868,-0.004781903699040413,0.00819087028503418,-0.7446542382240295,0.0,0.0,0.0,0.0,0.0,0.0,0.0,0.0,0.0,0.9314725995063782,0.0029450065921992064,-0.003716959385201335,-0.3637693524360657,0.0,25061.4375,0.0,1002.45751953125,11.4375,-0.4926444888114929,6.179893262449391e-38,-1.3490651738085058e-12,0.0,3.1221854916389622e-25
138,0.4779999852180481,59.70327377319336,-0.0030429144389927387,0.026172440499067307,0.023406945168972015,-0.01985551044344902,0.017385229468345642,0.023358799517154694,-0.004961094353348017,0.008489723317325115,-0.7444794178009033,0.0,0.0,0.0,0.0,0.0,0.0,0.0,0.0,0.0,0.9315038919448853,0.0030519363936036825,-0.0038545052520930767,-0.36368700861930847,0.0,25061.4375,0.0,1002.45751953125,11.4375,-7.188368735817304e+25,-8.109383489105384e+37,-4.475745386697772e-16,0.0,4.531819456454457e+25
138,0.4779999852180481,59.81706237792969,0.1185595691204071,0.03249732404947281,0.04660984128713608,0.06550323963165283,0.10467374324798584,0.045137353241443634,-0.007973914965987206,0.009105879813432693,-0.7448586821556091,0.0,0.0,0.0,0.0,0.0,0.0,0.0,0.0,0.0,0.9314318895339966,0.002789994003251195,-0.005370297469198704,-0.3638542592525482,0.0,25062.1875,0.0,1002.4874877929688,11.4375,4.563852074035424e-11,nan,8.572894444531533e+23,0.0,1.1301203836749174e-34
138,0.4779999852180481,59.91746520996094,0.05118021368980408,-0.013373911380767822,-0.062199629843235016,0.04625105857849121,0.02438190206885338,-0.06271624565124512,-0.007007475011050701,0.007775106932967901,-0.7450265884399414,0.0,0.0,0.0,0.0,0.0,0.0,0.0,0.0,0.0,0.9314041137695312,0.0023456779308617115,-0.004678303375840187,-0.3639383912086487,0.0,25062.1875,0.0,1002.4874877929688,11.4375,6.542456454252315e-20,6.319096027754496e-35,-1.9694252699706225e+24,0.0,-1.9563277756395197e+37
138,0.4779999852180481,60.017852783203125,-0.030911307781934738,0.011884520761668682,-0.05592159181833267,-0.031110625714063644,-0.012644913047552109,-0.0556429885327816,-0.006110766436904669,0.007157731801271439,-0.7458313703536987,0.0,0.0,0.0,0.0,0.0,0.0,0.0,0.0,0.0,0.9312589168548584,0.0022196804638952017,-0.004149254877120256,-0.36431658267974854,0.0,25062.1875,0.0,1002.4874877929688,11.4375,-0.4926444888114929,6.179893262449391e-38,-1.3490651738085058e-12,0.0,3.1221854916389622e-25
138,0.4779999852180481,60.13164520263672,0.10972057282924652,0.13982824981212616,-0.04063037782907486,-0.015453995205461979,0.1768980324268341,-0.04134111851453781,-0.007444482296705246,0.004661149810999632,-0.7506834268569946,0.0,0.0,0.0,0.0,0.0,0.0,0.0,0.0,0.0,0.9303728342056274,0.0008037630468606949,-0.004317460581660271,-0.3665773868560791,0.0,25061.25,0.0,1002.4500122070312,11.4375,-7.188368735817304e+25,-8.109383489105384e+37,-4.475745386697772e-16,0.0,4.531819456454457e+25
138,0.4779999852180481,60.232032775878906,0.18596972525119781,0.046176690608263016,0.0323924645781517,0.10437598079442978,0.16105473041534424,0.030540311709046364,-0.006936158053576946,0.007012796122580767,-0.7527474761009216,0.0,0.0,0.0,0.0,0.0,0.0,0.0,0.0,0.0,0.9299929738044739,0.001986234448850155,-0.0045140753500163555,-0.3675331771373749,0.0,25061.25,0.0,1002.4500122070312,11.4375,4.563852074035424e-11,nan,8.572894444531533e+23,0.0,1.1301203836749174e-34
138,0.4779999852180481,60.33243179321289,-0.08052241057157516,0.11660518497228622,-0.01313785556703806,-0.13856074213981628,0.02991258166730404,-0.0126119963824749,-0.005354521330446005,0.007210063748061657,-0.7530953288078308,0.0,0.0,0.0,0.0,0.0,0.0,0.0,0.0,0.0,0.9299300312995911,0.0023679714649915695,-0.003815283067524433,-0.3676980435848236,0.0,25061.25,0.0,1002.4500122070312,11.4375,6.542456454252315e-20,6.319096027754496e-35,-1.9694252699706225e+24,0.0,-1.9563277756395197e+37
138,0.4779999852180481,60.43281936645508,-0.04760168865323067,-0.02083754725754261,0.08026119321584702,-0.020180504769086838,-0.047088783234357834,0.08072936534881592,-0.00499429227784276,0.007743054069578648,-0.7509260177612305,0.0,0.0,0.0,0.0,0.0,0.0,0.0,0.0,0.0,0.9303278923034668,0.002686086343601346,-0.0037428673822432756,-0.36668896675109863,0.0,25061.25,0.0,1002.4500122070312,11.4375,-0.4926444888114929,6.179893262449391e-38,-1.3490651738085058e-12,0.0,3.1221854916389622e-25
138,0.4779999852180481,60.54661560058594,0.015588467940688133,-0.05086517706513405,-0.10601905733346939,0.045625388622283936,-0.027298539876937866,-0.10603395849466324,-0.00413840776309371,0.006454728078097105,-0.7495228052139282,0.0,0.0,0.0,0.0,0.0,0.0,0.0,0.0,0.0,0.9305869340896606,0.0022459139581769705,-0.003106956137344241,-0.3660401701927185,0.0,25062.25,0.0,1002.489990234375,11.4375,-7.188368735817304e+25,-8.109383489105384e+37,-4.475745386697772e-16,0.0,4.531819456454457e+25
138,0.4779999852180481,60.647003173828125,0.06715178489685059,0.014874578453600407,0.03793712705373764,0.039207637310028076,0.05681965500116348,0.03747040778398514,-0.003327472833916545,0.0059280009008944035,-0.7484670877456665,0.0,0.0,0.0,0.0,0.0,0.0,0.0,0.0,0.0,0.930780827999115,0.002150643849745393,-0.0026320950128138065,-0.36555108428001404,0.0,25062.25,0.0,1002.489990234375,11.4375,4.563852074035424e-11,nan,8.572894444531533e+23,0.0,1.1301203836749174e-34
138,0.4779999852180481,60.747398376464844,0.0035049172583967447,0.0016311774961650372,-0.177826926112175,0.0008249799138866365,0.0024496717378497124,-0.1778487116098404,-0.0035819043405354023,0.006349009461700916,-0.7473961114883423,0.0,0.0,0.0,0.0,0.0,0.0,0.0,0.0,0.0,0.9309757947921753,0.0023015851620584726,-0.0028262233827263117,-0.3650515377521515,0.0,25062.25,0.0,1002.489990234375,11.4375,6.542456454252315e-20,6.319096027754496e-35,-1.9694252699706225e+24,0.0,-1.9563277756395197e+37
138,0.4779999852180481,60.84779357910156,0.010557038709521294,0.015392782166600227,0.0951356515288353,-0.00219975458458066,0.01903901807963848,0.09503529965877533,-0.006090597249567509,0.006121024023741484,-0.750618040561676,0.0,0.0,0.0,0.0,0.0,0.0,0.0,0.0,0.0,0.930385410785675,0.0017311718547716737,-0.003955172374844551,-0.36654651165008545,0.0,25062.25,0.0,1002.489990234375,11.4375,-0.4926444888114929,6.179893262449391e-38,-1.3490651738085058e-12,0.0,3.1221854916389622e-25
138,0.4779999852180481,60.96158218383789,0.15257041156291962,0.06397368758916855,-0.03256324678659439,0.0681578516960144,0.1504041850566864,-0.034107934683561325,-0.004769760183990002,0.008100660517811775,-0.7480936050415039,0.0,0.0,0.0,0.0,0.0,0.0,0.0,0.0,0.0,0.9308457970619202,0.00289884302765131,-0.0036998866125941277,-0.36537089943885803,0.0,25062.375,0.0,1002.4949951171875,11.4375,-7.188368735817304e+25,-8.109383489105384e+37,-4.475745386697772e-16,0.0,4.531819456454457e+25
138,0.4779999852180481,61.06197738647461,0.2610132396221161,0.034338124096393585,-0.0026264572516083717,0.168035089969635,0.2026049643754959,-0.0053114029578864574,-0.005566296633332968,0.00863453559577465,-0.7476364374160767,0.0,0.0,0.0,0.0,0.0,0.0,0.0,0.0,0.0,0.930928111076355,0.003002748591825366,-0.004167457111179829,-0.3651551604270935,0.0,25062.375,0.0,1002.4949951171875,11.4375,4.563852074035424e-11,nan,8.572894444531533e+23,0.0,1.1301203836749174e-34
138,0.4779999852180481,61.16237258911133,0.010293742641806602,0.02056621015071869,-0.02670387178659439,-0.0066084968857467175,0.021865125745534897,-0.026837486773729324,-0.0065409354865550995,0.008032171986997128,-0.7476038336753845,0.0,0.0,0.0,0.0,0.0,0.0,0.0,0.0,0.0,0.9309343099594116,0.0025444841012358665,-0.004511096514761448,-0.36513882875442505,0.0,25062.375,0.0,1002.4949951171875,11.4375,6.542456454252315e-20,6.319096027754496e-35,-1.9694252699706225e+24,0.0,-1.9563277756395197e+37
138,0.4779999852180481,61.262760162353516,0.10600772500038147,0.10826966911554337,0.024787865579128265,0.0042242081835865974,0.15167929232120514,0.02344280667603016,-0.006167655810713768,0.008703750558197498,-0.7479695677757263,0.0,0.0,0.0,0.0,0.0,0.0,0.0,0.0,0.0,0.9308668971061707,0.0029244208708405495,-0.004460491705685854,-0.3653084933757782,0.0,25061.6875,0.0,1002.467529296875,11.4375,-0.4926444888114929,6.179893262449391e-38,-1.3490651738085058e-12,0.0,3.1221854916389622e-25
138,0.4779999852180481,61.37655258178711,0.05610605329275131,0.09112116694450378,-0.04069045931100845,-0.021366463974118233,0.10462482273578644,-0.041274409741163254,-0.006581923924386501,0.006910946685820818,-0.7503786683082581,0.0,0.0,0.0,0.0,0.0,0.0,0.0,0.0,0.0,0.9304280281066895,0.0020091033075004816,-0.004328264854848385,-0.36643245816230774,0.0,25061.6875,0.0,1002.467529296875,11.4375,-7.188368735817304e+25,-8.109383489105384e+37,-4.475745386697772e-16,0.0,4.531819456454457e+25
138,0.4779999852180481,61.47694396972656,0.045031510293483734,0.05185362324118614,0.0023641204461455345,-0.002388547407463193,0.06865277141332626,0.0017995925154536963,-0.004643392749130726,0.008385606110095978,-0.75004643201828,0.0,0.0,0.0,0.0,0.0,0.0,0.0,0.0,0.0,0.9304881691932678,0.003050942672416568,-0.0036961087025702,-0.36627936363220215,0.0,25061.6875,0.0,1002.467529296875,11.4375,4.563852074035424e-11,nan,8.572894444531533e+23,0.0,1.1301203836749174e-34
138,0.4779999852180481,61.57733917236328,0.06013580784201622,0.027185775339603424,-0.0046739960089325905,0.02548776939511299,0.06082000210881233,-0.005334729794412851,-0.00399565976113081,0.009185710921883583,-0.7493916749954224,0.0,0.0,0.0,0.0,0.0,0.0,0.0,0.0,0.0,0.9306069612503052,0.0035429783165454865,-0.003540125908330083,-0.36597490310668945,0.0,25061.6875,0.0,1002.467529296875,11.4375,6.542456454252315e-20,6.319096027754496e-35,-1.9694252699706225e+24,0.0,-1.9563277756395197e+37
138,0.4779999852180481,61.69113540649414,0.11177078634500504,0.051914285868406296,-0.025764502584934235,0.04600808024406433,0.11406553536653519,-0.026900924742221832,-0.006299037020653486,0.007413099519908428,-0.7519522309303284,0.0,0.0,0.0,0.0,0.0,0.0,0.0,0.0,0.0,0.9301391243934631,0.002291169948875904,-0.004290468525141478,-0.36716392636299133,0.0,25061.375,0.0,1002.4550170898438,11.4375,-0.4926444888114929,6.179893262449391e-38,-1.3490651738085058e-12,0.0,3.1221854916389622e-25
138,0.4779999852180481,61.79152297973633,-0.046064674854278564,-0.07525362074375153,0.05146976560354233,0.017931634560227394,-0.08603256940841675,0.05206615477800369,-0.005500731524080038,0.008054841309785843,-0.7506725788116455,0.0,0.0,0.0,0.0,0.0,0.0,0.0,0.0,0.0,0.9303736686706543,0.0027387714944779873,-0.0040352619253098965,-0.36656931042671204,0.0,25061.375,0.0,1002.4550170898438,11.4375,-7.188368735817304e+25,-8.109383489105384e+37,-4.475745386697772e-16,0.0,4.531819456454457e+25
138,0.4779999852180481,61.891910552978516,0.021505629643797874,0.015447179786860943,-0.01932624727487564,0.005175931844860315,0.025757957249879837,-0.019604386761784554,-0.0046039544977247715,0.009834260679781437,-0.7477279901504517,0.0,0.0,0.0,0.0,0.0,0.0,0.0,0.0,0.0,0.9309098720550537,0.003736712271347642,-0.003938736394047737,-0.3651978671550751,0.0,25061.375,0.0,1002.4550170898438,11.4375,4.563852074035424e-11,nan,8.572894444531533e+23,0.0,1.1301203836749174e-34
138,0.4779999852180481,61.992431640625,-0.019096985459327698,0.003659019246697426,-0.019811667501926422,-0.0166037417948246,-0.010502249002456665,-0.019611001014709473,-0.006828673649579287,0.008405445143580437,-0.7498265504837036,0.0,0.0,0.0,0.0,0.0,0.0,0.0,0.0,0.0,0.9305272102355957,0.002660454949364066,-0.004716136492788792,-0.36617159843444824,0.0,25061.375,0.0,1002.4550170898438,11.4375,6.542456454252315e-20,6.319096027754496e-35,-1.9694252699706225e+24,0.0,-1.9563277756395197e+37
138,0.4779999852180481,62.106224060058594,0.005573719274252653,0.02425633743405342,0.023791275918483734,-0.012234864756464958,0.021782774478197098,0.023690946400165558,-0.008582169190049171,0.009507298469543457,-0.7492468357086182,0.0,0.0,0.0,0.0,0.0,0.0,0.0,0.0,0.0,0.9306301474571228,0.0028537006583064795,-0.005732872989028692,-0.3658941686153412,0.0,25060.375,0.0,1002.4149780273438,11.4375,-0.4926444888114929,6.179893262449391e-38,-1.3490651738085058e-12,0.0,3.1221854916389622e-25
138,0.4779999852180481,62.20661544799805,0.005307267419993877,0.07241594791412354,-0.01959613710641861,-0.045828718692064285,0.05633227154612541,-0.019559115171432495,-0.009080701507627964,0.006711283233016729,-0.7530915141105652,0.0,0.0,0.0,0.0,0.0,0.0,0.0,0.0,0.0,0.929927408695221,0.0014509704196825624,-0.005456118378788233,-0.367688924074173,0.0,25060.375,0.0,1002.4149780273438,11.4375,-7.188368735817304e+25,-8.109383489105384e+37,-4.475745386697772e-16,0.0,4.531819456454457e+25
138,0.4779999852180481,62.307003021240234,0.06864838302135468,0.0679531916975975,-0.07603458315134048,0.0033053404185920954,0.09580625593662262,-0.07695116102695465,-0.006994760129600763,0.009278355166316032,-0.7507503628730774,0.0,0.0,0.0,0.0,0.0,0.0,0.0,0.0,0.0,0.9303565621376038,0.0030338887590914965,-0.004954629112035036,-0.36659881472587585,0.0,25060.375,0.0,1002.4149780273438,11.4375,4.563852074035424e-11,nan,8.572894444531533e+23,0.0,1.1301203836749174e-34
138,0.4779999852180481,62.40739822387695,-0.011976233683526516,0.07498065382242203,-0.19179348647594452,-0.06086798012256622,0.044979412108659744,-0.19188936054706573,-0.005484157707542181,0.009337357245385647,-0.7488219738006592,0.0,0.0,0.0,0.0,0.0,0.0,0.0,0.0,0.0,0.93071049451828,0.003342360956594348,-0.004259525798261166,-0.3657056391239166,0.0,25060.375,0.0,1002.4149780273438,11.4375,6.542456454252315e-20,6.319096027754496e-35,-1.9694252699706225e+24,0.0,-1.9563277756395197e+37
138,0.4779999852180481,62.52119445800781,0.08328289538621902,-0.02324417419731617,0.02425285428762436,0.07688599824905396,0.04006892070174217,0.023397115990519524,-0.007544441614300013,0.006905961316078901,-0.7518942356109619,0.0,0.0,0.0,0.0,0.0,0.0,0.0,0.0,0.0,0.9301491379737854,0.0018268043641000986,-0.004776512738317251,-0.36713525652885437,0.0,25060.875,0.0,1002.4349975585938,11.4375,-0.4926444888114929,6.179893262449391e-38,-1.3490651738085058e-12,0.0,3.1221854916389622e-25
138,0.4779999852180481,62.621585845947266,0.06946033984422684,0.07585114240646362,-0.17681221663951874,-0.0019431556575000286,0.10143313556909561,-0.17761632800102234,-0.006064386107027531,0.007970228791236877,-0.7499144673347473,0.0,0.0,0.0,0.0,0.0,0.0,0.0,0.0,0.0,0.9305122494697571,0.0025977171026170254,-0.004280973691493273,-0.36621543765068054,0.0,25060.875,0.0,1002.4349975585938,11.4375,-7.188368735817304e+25,-8.109383489105384e+37,-4.475745386697772e-16,0.0,4.531819456454457e+25
138,0.4779999852180481,62.72197723388672,0.15704673528671265,0.053819768130779266,-0.0033388519659638405,0.07830560952425003,0.1463286131620407,-0.00520715769380331,-0.005199689418077469,0.009983562864363194,-0.7493104338645935,0.0,0.0,0.0,0.0,0.0,0.0,0.0,0.0,0.0,0.9306200742721558,0.003694058395922184,-0.004246210213750601,-0.3659323453903198,0.0,25060.875,0.0,1002.4349975585938,11.4375,4.563852074035424e-11,nan,8.572894444531533e+23,0.0,1.1301203836749174e-34
138,0.4779999852180481,62.835777282714844,0.0714140310883522,0.10812676697969437,-0.0469999685883522,-0.02206830494105816,0.12735040485858917,-0.04790526255965233,-0.011053189635276794,0.008989520370960236,-0.7507807016372681,0.0,0.0,0.0,0.0,0.0,0.0,0.0,0.0,0.0,0.9303463101387024,0.0021554469130933285,-0.0067895930260419846,-0.366601824760437,0.0,25062.0625,0.0,1002.4824829101562,11.4375,6.542456454252315e-20,6.319096027754496e-35,-1.9694252699706225e+24,0.0,-1.9563277756395197e+37
138,0.4779999852180481,62.9361686706543,0.009934543631970882,0.05423895642161369,-0.03340248018503189,-0.029908379539847374,0.04614276811480522,-0.03365340083837509,-0.008187714964151382,0.010685286484658718,-0.7485745549201965,0.0,0.0,0.0,0.0,0.0,0.0,0.0,0.0,0.0,0.9307515621185303,0.003475945210084319,-0.005763669963926077,-0.36557912826538086,0.0,25062.0625,0.0,1002.4824829101562,11.4375,-0.4926444888114929,6.179893262449391e-38,-1.3490651738085058e-12,0.0,3.1221854916389622e-25
138,0.4779999852180481,63.036556243896484,0.0693368911743164,0.03454318270087242,0.010252914391458035,0.0274082962423563,0.07258079946041107,0.009309794753789902,-0.007465710397809744,0.010184369049966335,-0.7479909658432007,0.0,0.0,0.0,0.0,0.0,0.0,0.0,0.0,0.0,0.9308596849441528,0.0033763775136321783,-0.00533512094989419,-0.3653111755847931,0.0,25062.0625,0.0,1002.4824829101562,11.4375,-7.188368735817304e+25,-8.109383489105384e+37,-4.475745386697772e-16,0.0,4.531819456454457e+25
138,0.4779999852180481,63.13694381713867,-0.0067542861215770245,0.05410146340727806,0.030736885964870453,-0.04152841493487358,0.035310592502355576,0.03075443021953106,-0.0079081691801548,0.00885862484574318,-0.7486699223518372,0.0,0.0,0.0,0.0,0.0,0.0,0.0,0.0,0.0,0.9307372570037842,0.0026767116505652666,-0.00529980706050992,-0.3656294047832489,0.0,25062.0625,0.0,1002.4824829101562,11.4375,4.563852074035424e-11,nan,8.572894444531533e+23,0.0,1.1301203836749174e-34
138,0.4779999852180481,63.2507438659668,0.035424839705228806,0.07312274724245071,-0.0980701819062233,-0.02473580278456211,0.0768166035413742,-0.0985226035118103,-0.007659346330910921,0.0082850968465209,-0.7508013248443604,0.0,0.0,0.0,0.0,0.0,0.0,0.0,0.0,0.0,0.9303480386734009,0.002449888037517667,-0.005081777460873127,-0.36662325263023376,0.0,25061.125,0.0,1002.4450073242188,11.4375,6.542456454252315e-20,6.319096027754496e-35,-1.9694252699706225e+24,0.0,-1.9563277756395197e+37
138,0.4779999852180481,63.35113525390625,0.06824749708175659,0.07970444113016129,-0.018964804708957672,-0.004723689518868923,0.10469719767570496,-0.019651567563414574,-0.007814912125468254,0.0069036176428198814,-0.7517356276512146,0.0,0.0,0.0,0.0,0.0,0.0,0.0,0.0,0.0,0.9301779866218567,0.001776450197212398,-0.004901730455458164,-0.36706089973449707,0.0,25061.125,0.0,1002.4450073242188,11.4375,-0.4926444888114929,6.179893262449391e-38,-1.3490651738085058e-12,0.0,3.1221854916389622e-25
138,0.4779999852180481,63.45152282714844,0.05511440709233284,0.039307303726673126,-0.1053333654999733,0.012792279943823814,0.06558571755886078,-0.10588863492012024,-0.006025700829923153,0.00723242899402976,-0.7515960931777954,0.0,0.0,0.0,0.0,0.0,0.0,0.0,0.0,0.0,0.9302050471305847,0.0022580644581466913,-0.004129778128117323,-0.3669993579387665,0.0,25061.125,0.0,1002.4450073242188,11.4375,-7.188368735817304e+25,-8.109383489105384e+37,-4.475745386697772e-16,0.0,4.531819456454457e+25
138,0.4779999852180481,63.551910400390625,0.15270653367042542,-0.04441375657916069,-0.07598117738962173,0.1418536752462387,0.07074244320392609,-0.07705550640821457,-0.00237471517175436,0.010371905751526356,-0.7496111392974854,0.0,0.0,0.0,0.0,0.0,0.0,0.0,0.0,0.0,0.9305641651153564,0.004391215741634369,-0.003003435442224145,-0.3660792410373688,0.0,25061.125,0.0,1002.4450073242188,11.4375,4.563852074035424e-11,nan,8.572894444531533e+23,0.0,1.1301203836749174e-34
138,0.4779999852180481,63.665714263916016,0.07555778324604034,0.018621578812599182,0.0746278390288353,0.043137989938259125,0.06575099378824234,0.07376168668270111,-0.008058717474341393,0.007948927581310272,-0.7508178949356079,0.0,0.0,0.0,0.0,0.0,0.0,0.0,0.0,0.0,0.9303449392318726,0.002220251364633441,-0.005205947905778885,-0.36663076281547546,0.0,25061.5625,0.0,1002.4625244140625,11.4375,6.542456454252315e-20,6.319096027754496e-35,-1.9694252699706225e+24,0.0,-1.9563277756395197e+37
138,0.4779999852180481,63.76610565185547,0.00900664646178484,0.0474858395755291,0.016412697732448578,-0.02561725676059723,0.04105539992451668,0.016234803944826126,-0.0062828813679516315,0.008271679282188416,-0.7486056685447693,0.0,0.0,0.0,0.0,0.0,0.0,0.0,0.0,0.0,0.9307511448860168,0.0027008620090782642,-0.004436061251908541,-0.3656051754951477,0.0,25061.5625,0.0,1002.4625244140625,11.4375,-0.4926444888114929,6.179893262449391e-38,-1.3490651738085058e-12,0.0,3.1221854916389622e-25
138,0.4779999852180481,63.866493225097656,0.027295872569084167,0.015368734486401081,-0.08394435793161392,0.009076899848878384,0.029095640406012535,-0.08425463736057281,-0.005671968683600426,0.008760078810155392,-0.7480867505073547,0.0,0.0,0.0,0.0,0.0,0.0,0.0,0.0,0.0,0.9308457374572754,0.003040936077013612,-0.004240249749273062,-0.3653641939163208,0.0,25061.5625,0.0,1002.4625244140625,11.4375,-7.188368735817304e+25,-8.109383489105384e+37,-4.475745386697772e-16,0.0,4.531819456454457e+25
138,0.4779999852180481,63.966880798339844,0.0691782608628273,0.10749179124832153,0.03831382840871811,-0.02248643897473812,0.12601864337921143,0.0377020537853241,-0.007429579738527536,0.00619214354082942,-0.7509403824806213,0.0,0.0,0.0,0.0,0.0,0.0,0.0,0.0,0.0,0.9303249716758728,0.0015181025955826044,-0.004591335542500019,-0.36669355630874634,0.0,25061.9375,0.0,1002.4774780273438,11.4375,4.563852074035424e-11,nan,8.572894444531533e+23,0.0,1.1301203836749174e-34
138,0.4779999852180481,64.08068084716797,0.05330756679177284,0.004909941460937262,-0.019096411764621735,0.035603661090135574,0.03971033915877342,-0.01964416541159153,-0.005162084009498358,0.009142303839325905,-0.7488660216331482,0.0,0.0,0.0,0.0,0.0,0.0,0.0,0.0,0.0,0.9307028651237488,0.0033103986643254757,-0.004074054304510355,-0.36572739481925964,0.0,25061.9375,0.0,1002.4774780273438,11.4375,6.542456454252315e-20,6.319096027754496e-35,-1.9694252699706225e+24,0.0,-1.9563277756395197e+37
138,0.4779999852180481,64.18106842041016,0.05022840574383736,0.04270816221833229,-0.06976035982370377,0.00720200315117836,0.06509433686733246,-0.07017192244529724,-0.004396996460855007,0.005816036369651556,-0.752002477645874,0.0,0.0,0.0,0.0,0.0,0.0,0.0,0.0,0.0,0.9301328659057617,0.0018975473940372467,-0.0031127375550568104,-0.36719414591789246,0.0,25061.9375,0.0,1002.4774780273438,11.4375,-0.4926444888114929,6.179893262449391e-38,-1.3490651738085058e-12,0.0,3.1221854916389622e-25
138,0.4779999852180481,64.28146362304688,0.08231859654188156,0.004188871011137962,-0.011957206763327122,0.05731949582695961,0.05908971652388573,-0.01263492088764906,-0.003677134867757559,0.007895905524492264,-0.7502025365829468,0.0,0.0,0.0,0.0,0.0,0.0,0.0,0.0,0.0,0.9304605722427368,0.0029998356476426125,-0.0031571120489388704,-0.3663550615310669,0.0,25061.9375,0.0,1002.4774780273438,11.4375,-7.188368735817304e+25,-8.109383489105384e+37,-4.475745386697772e-16,0.0,4.531819456454457e+25
138,0.4779999852180481,64.39525604248047,0.05066179111599922,0.012821629643440247,-0.06949714571237564,0.028063083067536354,0.043305594474077225,-0.06998453289270401,-0.0037326044403016567,0.00877499207854271,-0.7501375675201416,0.0,0.0,0.0,0.0,0.0,0.0,0.0,0.0,0.0,0.9304711818695068,0.0033987611532211304,-0.003343836171552539,-0.3663232922554016,0.0,25061.625,0.0,1002.4650268554688,11.4375,4.563852074035424e-11,nan,8.572894444531533e+23,0.0,1.1301203836749174e-34
138,0.4779999852180481,64.49565124511719,0.1315886676311493,-0.04216264933347702,0.01033779140561819,0.12522344291210175,0.05860414728522301,0.009190723299980164,-0.004073418211191893,0.01087863091379404,-0.7472436428070068,0.0,0.0,0.0,0.0,0.0,0.0,0.0,0.0,0.0,0.9309961199760437,0.004320640116930008,-0.003881450742483139,-0.3649718463420868,0.0,25061.625,0.0,1002.4650268554688,11.4375,6.542456454252315e-20,6.319096027754496e-35,-1.9694252699706225e+24,0.0,-1.9563277756395197e+37
138,0.4779999852180481,64.59603881835938,0.009952566586434841,-0.002030358649790287,-0.1127806082367897,0.008202007040381432,0.004070737399160862,-0.11286536604166031,-0.004294850397855043,0.010583071038126945,-0.7461420297622681,0.0,0.0,0.0,0.0,0.0,0.0,0.0,0.0,0.0,0.9311976432800293,0.004144811071455479,-0.003928308840841055,-0.36445891857147217,0.0,25061.625,0.0,1002.4650268554688,11.4375,-0.4926444888114929,6.179893262449391e-38,-1.3490651738085058e-12,0.0,3.1221854916389622e-25
138,0.4779999852180481,64.6964340209961,0.0886949822306633,0.035989910364151,-0.04719928652048111,0.04028715565800667,0.08623524755239487,-0.04827093333005905,-0.006150164175778627,0.009522717446088791,-0.7475383281707764,0.0,0.0,0.0,0.0,0.0,0.0,0.0,0.0,0.0,0.9309442639350891,0.0033097818959504366,-0.0046012247912585735,-0.36510592699050903,0.0,25061.625,0.0,1002.4650268554688,11.4375,-7.188368735817304e+25,-8.109383489105384e+37,-4.475745386697772e-16,0.0,4.531819456454457e+25
138,0.4779999852180481,64.81022644042969,0.08027061820030212,0.15945124626159668,0.01016517635434866,-0.049885526299476624,0.1714591681957245,0.009168893098831177,-0.008028576150536537,0.008149867877364159,-0.7500823736190796,0.0,0.0,0.0,0.0,0.0,0.0,0.0,0.0,0.0,0.9304795265197754,0.0023211718071252108,-0.0052279094234108925,-0.3662881553173065,0.0,25061.75,0.0,1002.469970703125,11.4375,4.563852074035424e-11,nan,8.572894444531533e+23,0.0,1.1301203836749174e-34
138,0.4779999852180481,64.9106216430664,-0.004816114902496338,-0.011204331181943417,0.05930038541555405,0.00455235643312335,-0.01102677546441555,0.05935398116707802,-0.007600637152791023,0.007725791074335575,-0.7489883303642273,0.0,0.0,0.0,0.0,0.0,0.0,0.0,0.0,0.0,0.9306807518005371,0.002204964403063059,-0.004949943162500858,-0.365781307220459,0.0,25061.75,0.0,1002.469970703125,11.4375,6.542456454252315e-20,6.319096027754496e-35,-1.9694252699706225e+24,0.0,-1.9563277756395197e+37
138,0.4779999852180481,65.0110092163086,0.0476972870528698,0.10405472666025162,-0.11238674074411392,-0.037118274718523026,0.1077943816781044,-0.11285118758678436,-0.00892419833689928,0.0073205819353461266,-0.7508182525634766,0.0,0.0,0.0,0.0,0.0,0.0,0.0,0.0,0.0,0.9303444623947144,0.0017692919354885817,-0.005493359174579382,-0.3666304349899292,0.0,25061.75,0.0,1002.469970703125,11.4375,-0.4926444888114929,6.179893262449391e-38,-1.3490651738085058e-12,0.0,3.1221854916389622e-25
138,0.4779999852180481,65.11139678955078,0.010079978033900261,0.011584795080125332,-0.07690910249948502,-0.0010702847503125668,0.014730173163115978,-0.07702338695526123,-0.007441725116223097,0.008027790114283562,-0.7484840750694275,0.0,0.0,0.0,0.0,0.0,0.0,0.0,0.0,0.0,0.9307727813720703,0.0023758062161505222,-0.004930628929287195,-0.3655462861061096,0.0,25061.75,0.0,1002.469970703125,11.4375,-7.188368735817304e+25,-8.109383489105384e+37,-4.475745386697772e-16,0.0,4.531819456454457e+25
138,0.4779999852180481,65.2251968383789,0.06589436531066895,0.07814871519804001,-0.1696052998304367,-0.006785007659345865,0.10084350407123566,-0.17029143869876862,-0.008758731186389923,0.007297338917851448,-0.7523970603942871,0.0,0.0,0.0,0.0,0.0,0.0,0.0,0.0,0.0,0.9300550222396851,0.0017845421098172665,-0.005413538310676813,-0.3673652410507202,0.0,25060.875,0.0,1002.4349975585938,11.4375,4.563852074035424e-11,nan,8.572894444531533e+23,0.0,1.1301203836749174e-34
138,0.4779999852180481,65.32559204101562,0.07538033276796341,-0.020910661667585373,-0.09043125063180923,0.06861274689435959,0.0354074127972126,-0.09129969775676727,-0.008389540947973728,0.008115478791296482,-0.7509427070617676,0.0,0.0,0.0,0.0,0.0,0.0,0.0,0.0,0.0,0.9303215146064758,0.0022367394994944334,-0.005390508100390434,-0.36668750643730164,0.0,25060.875,0.0,1002.4349975585938,11.4375,6.542456454252315e-20,6.319096027754496e-35,-1.9694252699706225e+24,0.0,-1.9563277756395197e+37
138,0.4779999852180481,65.42598724365234,0.06626106798648834,0.048587020486593246,-0.011453666724264622,0.015284406952559948,0.08060342073440552,-0.012319865636527538,-0.007237635552883148,0.00936481449753046,-0.7499486207962036,0.0,0.0,0.0,0.0,0.0,0.0,0.0,0.0,0.0,0.9305031895637512,0.0030316226184368134,-0.005082241725176573,-0.366225004196167,0.0,25060.875,0.0,1002.4349975585938,11.4375,-0.4926444888114929,6.179893262449391e-38,-1.3490651738085058e-12,0.0,3.1221854916389622e-25
138,0.4779999852180481,65.53977966308594,-0.0007672491483390331,-0.029844898730516434,-0.04123596101999283,0.019515136256814003,-0.022799238562583923,-0.04112205654382706,-0.005338981747627258,0.00966152548789978,-0.7479304671287537,0.0,0.0,0.0,0.0,0.0,0.0,0.0,0.0,0.0,0.930872917175293,0.003521657083183527,-0.0042496733367443085,-0.36529043316841125,0.0,25061.1875,0.0,1002.447509765625,11.4375,-7.188368735817304e+25,-8.109383489105384e+37,-4.475745386697772e-16,0.0,4.531819456454457e+25
138,0.4779999852180481,65.64016723632812,0.15071795880794525,0.09229487180709839,-0.03188423067331314,0.04775753244757652,0.16976654529571533,-0.033894773572683334,-0.0046538496389985085,0.010522428900003433,-0.7468275427818298,0.0,0.0,0.0,0.0,0.0,0.0,0.0,0.0,0.0,0.9310726523399353,0.004049750976264477,-0.00408579595386982,-0.3647771179676056,0.0,25061.1875,0.0,1002.447509765625,11.4375,4.563852074035424e-11,nan,8.572894444531533e+23,0.0,1.1301203836749174e-34
138,0.4779999852180481,65.74056243896484,0.11814664304256439,0.09189004451036453,-0.0325498953461647,0.024068916216492653,0.14739441871643066,-0.034016117453575134,-0.0048738280311226845,0.009141390211880207,-0.7471755146980286,0.0,0.0,0.0,0.0,0.0,0.0,0.0,0.0,0.0,0.9310117363929749,0.003366016549989581,-0.0039369030855596066,-0.3649412989616394,0.0,25061.1875,0.0,1002.447509765625,11.4375,6.542456454252315e-20,6.319096027754496e-35,-1.9694252699706225e+24,0.0,-1.9563277756395197e+37
138,0.4779999852180481,65.84095001220703,-0.020289810374379158,0.016815057024359703,0.02339073270559311,-0.026198873296380043,-0.0011787556577473879,0.0235320795327425,-0.004875804763287306,0.01038606371730566,-0.7460538148880005,0.0,0.0,0.0,0.0,0.0,0.0,0.0,0.0,0.0,0.9312140941619873,0.003947393968701363,-0.004162725526839495,-0.36441659927368164,0.0,25061.1875,0.0,1002.447509765625,11.4375,-0.4926444888114929,6.179893262449391e-38,-1.3490651738085058e-12,0.0,3.1221854916389622e-25
138,0.4779999852180481,65.95475006103516,0.05946316942572594,0.0930248573422432,-0.04000762850046158,-0.019841741770505905,0.10829315334558487,-0.040850650519132614,-0.009359203279018402,0.009469548240303993,-0.7460189461708069,0.0,0.0,0.0,0.0,0.0,0.0,0.0,0.0,0.0,0.9312185049057007,0.0027037838008254766,-0.006083173211663961,-0.36438941955566406,0.0,25061.5,0.0,1002.4600219726562,11.4375,-7.188368735817304e+25,-8.109383489105384e+37,-4.475745386697772e-16,0.0,4.531819456454457e+25
138,0.4779999852180481,66.05513763427734,0.031070780009031296,0.033557794988155365,-0.05518630892038345,-0.0004817071894649416,0.04533974453806877,-0.0555071160197258,-0.008114856667816639,0.007100848946720362,-0.747676432132721,0.0,0.0,0.0,0.0,0.0,0.0,0.0,0.0,0.0,0.9309204816818237,0.0018234283197671175,-0.005073738284409046,-0.36517101526260376,0.0,25061.5,0.0,1002.4600219726562,11.4375,4.563852074035424e-11,nan,8.572894444531533e+23,0.0,1.1301203836749174e-34
138,0.4779999852180481,66.15553283691406,0.06293106079101562,0.07875852286815643,-0.018827475607395172,-0.007351560052484274,0.10038115829229355,-0.019674910232424736,-0.005150346085429192,0.00881091970950365,-0.7461789846420288,0.0,0.0,0.0,0.0,0.0,0.0,0.0,0.0,0.0,0.9311938881874084,0.0031637167558073997,-0.004003746900707483,-0.3644773066043854,0.0,25061.5,0.0,1002.4600219726562,11.4375,6.542456454252315e-20,6.319096027754496e-35,-1.9694252699706225e+24,0.0,-1.9563277756395197e+37
138,0.4779999852180481,66.25592041015625,0.08979631215333939,0.07239256799221039,0.002949676476418972,0.0168076790869236,0.11413418501615524,0.001855048118159175,-0.004882298409938812,0.008872583508491516,-0.7461782693862915,0.0,0.0,0.0,0.0,0.0,0.0,0.0,0.0,0.0,0.9311941266059875,0.0032412810251116753,-0.0038901809602975845,-0.36447760462760925,0.0,25061.5,0.0,1002.4600219726562,11.4375,-0.4926444888114929,6.179893262449391e-38,-1.3490651738085058e-12,0.0,3.1221854916389622e-25
138,0.4779999852180481,66.36971282958984,0.022596394643187523,0.12818101048469543,-0.06964591890573502,-0.07106264680624008,0.10883684456348419,-0.06997006386518478,-0.006525510922074318,0.0072139548137784,-0.7479009032249451,0.0,0.0,0.0,0.0,0.0,0.0,0.0,0.0,0.0,0.9308810234069824,0.002165800193324685,-0.004354856908321381,-0.365278959274292,0.0,25061.3125,0.0,1002.4525146484375,11.4375,-7.188368735817304e+25,-8.109383489105384e+37,-4.475745386697772e-16,0.0,4.531819456454457e+25
138,0.4779999852180481,66.47010040283203,0.2242116779088974,0.09886619448661804,0.05424400418996811,0.09769662469625473,0.22523334622383118,0.05207769200205803,-0.007618436589837074,0.006323122885078192,-0.7472233176231384,0.0,0.0,0.0,0.0,0.0,0.0,0.0,0.0,0.0,0.9310044050216675,0.0015531382523477077,-0.004700321238487959,-0.3649631440639496,0.0,25061.3125,0.0,1002.4525146484375,11.4375,4.563852074035424e-11,nan,8.572894444531533e+23,0.0,1.1301203836749174e-34
138,0.4779999852180481,66.57050323486328,0.0659700334072113,0.022008361294865608,0.016980133950710297,0.033454425632953644,0.06115416809916496,0.01629800722002983,-0.009047884494066238,0.006218713242560625,-0.7494328022003174,0.0,0.0,0.0,0.0,0.0,0.0,0.0,0.0,0.0,0.9305988550186157,0.0012377623934298754,-0.005348047707229853,-0.36598852276802063,0.0,25061.3125,0.0,1002.4525146484375,11.4375,6.542456454252315e-20,6.319096027754496e-35,-1.9694252699706225e+24,0.0,-1.9563277756395197e+37
138,0.4779999852180481,66.67089080810547,0.00764427101239562,0.004921839572489262,0.023324929177761078,0.002352711744606495,0.008986459113657475,0.02324671670794487,-0.0034258533269166946,0.00788106583058834,-0.7460799217224121,0.0,0.0,0.0,0.0,0.0,0.0,0.0,0.0,0.0,0.9312137961387634,0.00304521806538105,-0.003031219122931361,-0.36443689465522766,0.0,25061.1875,0.0,1002.447509765625,11.4375,-0.4926444888114929,6.179893262449391e-38,-1.3490651738085058e-12,0.0,3.1221854916389622e-25
138,0.4779999852180481,66.7846908569336,-0.017314571887254715,-0.08075203746557236,-0.034558333456516266,0.04181081801652908,-0.07144523411989212,-0.03409211337566376,-0.0037948081735521555,0.008764487691223621,-0.7439134120941162,0.0,0.0,0.0,0.0,0.0,0.0,0.0,0.0,0.0,0.9316067099571228,0.003392954356968403,-0.00336030893959105,-0.36342570185661316,0.0,25061.1875,0.0,1002.447509765625,11.4375,-7.188368735817304e+25,-8.109383489105384e+37,-4.475745386697772e-16,0.0,4.531819456454457e+25
138,0.4779999852180481,66.88507843017578,0.02242983691394329,0.017029784619808197,-0.07688430696725845,0.004581904504448175,0.027081036940217018,-0.0771351009607315,-0.005397873464971781,0.008232583291828632,-0.7430217266082764,0.0,0.0,0.0,0.0,0.0,0.0,0.0,0.0,0.0,0.9317689538002014,0.0028556655161082745,-0.004009096417576075,-0.36300745606422424,0.0,25061.1875,0.0,1002.447509765625,11.4375,4.563852074035424e-11,nan,8.572894444531533e+23,0.0,1.1301203836749174e-34
138,0.4779999852180481,66.9854965209961,-0.0021417017560452223,0.005716641433537006,0.03781314939260483,-0.005227547604590654,0.0031147832050919533,0.03781598061323166,-0.005666630808264017,0.009214223362505436,-0.7420596480369568,0.0,0.0,0.0,0.0,0.0,0.0,0.0,0.0,0.0,0.93194180727005,0.00326628633774817,-0.004310905933380127,-0.36255645751953125,0.0,25061.1875,0.0,1002.447509765625,11.4375,6.542456454252315e-20,6.319096027754496e-35,-1.9694252699706225e+24,0.0,-1.9563277756395197e+37
138,0.4779999852180481,67.09928894042969,0.1463782787322998,-0.01808447577059269,-0.08250430971384048,0.11915778368711472,0.08531254529953003,-0.08416265994310379,-0.00909251719713211,0.0066840252839028835,-0.7443926930427551,0.0,0.0,0.0,0.0,0.0,0.0,0.0,0.0,0.0,0.9315178990364075,0.0014598435955122113,-0.0054503027349710464,-0.3636409044265747,0.0,25061.125,0.0,1002.4450073242188,11.4375,-0.4926444888114929,6.179893262449391e-38,-1.3490651738085058e-12,0.0,3.1221854916389622e-25
138,0.4779999852180481,67.19967651367188,0.07574158161878586,0.1248985081911087,-0.03283504396677017,-0.028943724930286407,0.14292606711387634,-0.033891066908836365,-0.007355924230068922,0.008864698000252247,-0.7429206967353821,0.0,0.0,0.0,0.0,0.0,0.0,0.0,0.0,0.0,0.931784987449646,0.002794994041323662,-0.005035907495766878,-0.36295390129089355,0.0,25061.125,0.0,1002.4450073242188,11.4375,-7.188368735817304e+25,-8.109383489105384e+37,-4.475745386697772e-16,0.0,4.531819456454457e+25
138,0.4779999852180481,67.3000717163086,0.09602271765470505,0.09759495407342911,-0.02505878359079361,0.004703045357018709,0.13654181361198425,-0.026589088141918182,-0.0061187418177723885,0.010983369313180447,-0.7417991161346436,0.0,0.0,0.0,0.0,0.0,0.0,0.0,0.0,0.0,0.9319855570793152,0.004009321331977844,-0.004841758403927088,-0.362429678440094,0.0,25061.125,0.0,1002.4450073242188,11.4375,4.563852074035424e-11,nan,8.572894444531533e+23,0.0,1.1301203836749174e-34
138,0.4779999852180481,67.40046691894531,0.0176521185785532,0.07895506918430328,0.07391544431447983,-0.04003950208425522,0.07052259147167206,0.07370349019765854,-0.007756080944091082,0.0074614849872887135,-0.7458698749542236,0.0,0.0,0.0,0.0,0.0,0.0,0.0,0.0,0.0,0.9312500953674316,0.0020612934604287148,-0.0049707298167049885,-0.364329993724823,0.0,25061.125,0.0,1002.4450073242188,11.4375,6.542456454252315e-20,6.319096027754496e-35,-1.9694252699706225e+24,0.0,-1.9563277756395197e+37
138,0.4779999852180481,67.51426696777344,0.010519273579120636,0.017800506204366684,0.0020131682977080345,-0.004327678121626377,0.02023155242204666,0.001874677138403058,-0.006307955831289291,0.00819903053343296,-0.745239794254303,0.0,0.0,0.0,0.0,0.0,0.0,0.0,0.0,0.0,0.9313651919364929,0.002669927664101124,-0.004429962951689959,-0.3640384078025818,0.0,25060.75,0.0,1002.4299926757812,11.4375,-0.4926444888114929,6.179893262449391e-38,-1.3490651738085058e-12,0.0,3.1221854916389622e-25
138,0.4779999852180481,67.6146469116211,0.0361388735473156,-0.0037190301809459925,-0.09113220125436783,0.02835017256438732,0.021246235817670822,-0.09148571640253067,-0.007369500119239092,0.006628882605582476,-0.7479277849197388,0.0,0.0,0.0,0.0,0.0,0.0,0.0,0.0,0.0,0.9308758974075317,0.0017392655136063695,-0.004640849307179451,-0.36529091000556946,0.0,25060.75,0.0,1002.4299926757812,11.4375,-7.188368735817304e+25,-8.109383489105384e+37,-4.475745386697772e-16,0.0,4.531819456454457e+25
138,0.4779999852180481,67.71504211425781,0.09645899385213852,0.06525348871946335,-0.03304675966501236,0.02649436891078949,0.11308950930833817,-0.03410309925675392,-0.004626079462468624,0.008246010169386864,-0.7451595067977905,0.0,0.0,0.0,0.0,0.0,0.0,0.0,0.0,0.0,0.9313806891441345,0.0029981080442667007,-0.0036551733501255512,-0.3640049695968628,0.0,25060.75,0.0,1002.4299926757812,11.4375,4.563852074035424e-11,nan,8.572894444531533e+23,0.0,1.1301203836749174e-34
138,0.4779999852180481,67.81543731689453,0.11165784299373627,-0.004276820924133062,0.02471061795949936,0.08517418801784515,0.07271873950958252,0.02352684549987316,-0.005231333430856466,0.010170135647058487,-0.7440502643585205,0.0,0.0,0.0,0.0,0.0,0.0,0.0,0.0,0.0,0.9315789937973022,0.003786366432905197,-0.004285127390176058,-0.3634829819202423,0.0,25060.75,0.0,1002.4299926757812,11.4375,6.542456454252315e-20,6.319096027754496e-35,-1.9694252699706225e+24,0.0,-1.9563277756395197e+37
138,0.4779999852180481,67.92922973632812,0.07906541973352432,0.07232416421175003,0.03190227597951889,0.009304393082857132,0.10708782821893692,0.03074587695300579,-0.0056487335823476315,0.01032570842653513,-0.7446430325508118,0.0,0.0,0.0,0.0,0.0,0.0,0.0,0.0,0.0,0.9314708709716797,0.003781629726290703,-0.004508941899985075,-0.36375755071640015,0.0,25060.75,0.0,1002.4299926757812,11.4375,-0.4926444888114929,6.179893262449391e-38,-1.3490651738085058e-12,0.0,3.1221854916389622e-25
138,0.4779999852180481,68.02961730957031,0.14454829692840576,0.09581420570611954,-0.0390491858124733,0.04133397713303566,0.16795481741428375,-0.04100712388753891,-0.0067764874547719955,0.009974345564842224,-0.7431976199150085,0.0,0.0,0.0,0.0,0.0,0.0,0.0,0.0,0.0,0.9317334294319153,0.0034164455719292164,-0.004967801738530397,-0.36308178305625916,0.0,25060.75,0.0,1002.4299926757812,11.4375,-7.188368735817304e+25,-8.109383489105384e+37,-4.475745386697772e-16,0.0,4.531819456454457e+25
138,0.4779999852180481,68.1300048828125,0.04806887358427048,0.16615308821201324,0.09619613736867905,-0.0761968195438385,0.1556696742773056,0.09555914252996445,-0.009982992894947529,0.009029696695506573,-0.7440263032913208,0.0,0.0,0.0,0.0,0.0,0.0,0.0,0.0,0.0,0.9315809011459351,0.002391589805483818,-0.006291094236075878,-0.3634609580039978,0.0,25060.75,0.0,1002.4299926757812,11.4375,4.563852074035424e-11,nan,8.572894444531533e+23,0.0,1.1301203836749174e-34
138,0.4779999852180481,68.24380493164062,0.048274099826812744,0.03180278465151787,-0.018957175314426422,0.013785678893327713,0.055943310260772705,-0.01953001692891121,-0.008123980835080147,0.008217527531087399,-0.7447158098220825,0.0,0.0,0.0,0.0,0.0,0.0,0.0,0.0,0.0,0.9314588904380798,0.002349347807466984,-0.005278401542454958,-0.3637896776199341,0.0,25060.5,0.0,1002.4199829101562,11.4375,6.542456454252315e-20,6.319096027754496e-35,-1.9694252699706225e+24,0.0,-1.9563277756395197e+37
138,0.4779999852180481,68.34420013427734,-0.05528363958001137,0.007087668403983116,-0.013024368323385715,-0.045559272170066833,-0.03232434019446373,-0.012473472394049168,-0.006120158359408379,0.008434728719294071,-0.7438462376594543,0.0,0.0,0.0,0.0,0.0,0.0,0.0,0.0,0.0,0.9316185116767883,0.002816929016262293,-0.004383448977023363,-0.36338934302330017,0.0,25060.5,0.0,1002.4199829101562,11.4375,-0.4926444888114929,6.179893262449391e-38,-1.3490651738085058e-12,0.0,3.1221854916389622e-25
138,0.4779999852180481,68.44459533691406,-0.03380384296178818,-0.06485432386398315,-0.013006248511373997,0.01886044070124626,-0.07075344026088715,-0.012493649497628212,-0.005405855365097523,0.008693886920809746,-0.7423174977302551,0.0,0.0,0.0,0.0,0.0,0.0,0.0,0.0,0.0,0.9318959712982178,0.003070572391152382,-0.004095462150871754,-0.3626783788204193,0.0,25060.5,0.0,1002.4199829101562,11.4375,-7.188368735817304e+25,-8.109383489105384e+37,-4.475745386697772e-16,0.0,4.531819456454457e+25
138,0.4779999852180481,68.54497528076172,-0.021583661437034607,0.017509734258055687,-0.034131087362766266,-0.028012307360768318,-0.0019849457312375307,-0.033892713487148285,-0.007994035258889198,0.008268741890788078,-0.7429352402687073,0.0,0.0,0.0,0.0,0.0,0.0,0.0,0.0,0.0,0.9317824840545654,0.002401491394266486,-0.005225062370300293,-0.36296048760414124,0.0,25060.5,0.0,1002.4199829101562,11.4375,4.563852074035424e-11,nan,8.572894444531533e+23,0.0,1.1301203836749174e-34
138,0.4779999852180481,68.65878295898438,0.0019311679061502218,-0.03708384558558464,-0.04852203279733658,0.0262162983417511,-0.02630757726728916,-0.04851685091853142,-0.006120970938354731,0.0063535673543810844,-0.7431763410568237,0.0,0.0,0.0,0.0,0.0,0.0,0.0,0.0,0.0,0.9317425489425659,0.0018486970802769065,-0.004005070310086012,-0.36308160424232483,0.0,25060.375,0.0,1002.4149780273438,11.4375,6.542456454252315e-20,6.319096027754496e-35,-1.9694252699706225e+24,0.0,-1.9563277756395197e+37
138,0.4779999852180481,68.75917053222656,0.15241019427776337,0.19498957693576813,-0.03289226442575455,-0.02057230845093727,0.2464601844549179,-0.034129999577999115,-0.007234055083245039,0.00562132615596056,-0.7456994652748108,0.0,0.0,0.0,0.0,0.0,0.0,0.0,0.0,0.0,0.9312832355499268,0.0012999448226764798,-0.004392336122691631,-0.3642560839653015,0.0,25060.375,0.0,1002.4149780273438,11.4375,-0.4926444888114929,6.179893262449391e-38,-1.3490651738085058e-12,0.0,3.1221854916389622e-25
138,0.4779999852180481,68.85955810546875,-0.010001599788665771,-0.036479827016592026,-0.0558185949921608,0.017053550109267235,-0.034002114087343216,-0.055673014372587204,-0.005590424872934818,0.007139542140066624,-0.7445765137672424,0.0,0.0,0.0,0.0,0.0,0.0,0.0,0.0,0.0,0.9314877390861511,0.0023084506392478943,-0.003902207361534238,-0.3637333810329437,0.0,25060.375,0.0,1002.4149780273438,11.4375,-7.188368735817304e+25,-8.109383489105384e+37,-4.475745386697772e-16,0.0,4.531819456454457e+25
138,0.4779999852180481,68.95995330810547,0.0442039854824543,0.007589643355458975,-0.06238178163766861,0.027025358751416206,0.03504078462719917,-0.06280730664730072,-0.00603832583874464,0.0074195158667862415,-0.7434656023979187,0.0,0.0,0.0,0.0,0.0,0.0,0.0,0.0,0.0,0.9316889047622681,0.002359693869948387,-0.004160422366112471,-0.363214373588562,0.0,25060.375,0.0,1002.4149780273438,11.4375,4.563852074035424e-11,nan,8.572894444531533e+23,0.0,1.1301203836749174e-34
138,0.4779999852180481,69.0737533569336,0.16315022110939026,0.029561327770352364,-0.062110938131809235,0.09987560659646988,0.13189207017421722,-0.06307516247034073,-0.0022631660103797913,0.005592028610408306,-0.7440231442451477,0.0,0.0,0.0,0.0,0.0,0.0,0.0,0.0,0.0,0.9315912127494812,0.002193426713347435,-0.002070497954264283,-0.36348405480384827,0.0,25060.125,0.0,1002.405029296875,11.4375,6.542456454252315e-20,6.319096027754496e-35,-1.9694252699706225e+24,0.0,-1.9563277756395197e+37
138,0.4779999852180481,69.17414093017578,0.009720389731228352,0.00910236593335867,0.016029320657253265,0.001065612304955721,0.013373891822993755,0.01594599522650242,-0.0035573267377913,0.005966376978904009,-0.742408812046051,0.0,0.0,0.0,0.0,0.0,0.0,0.0,0.0,0.0,0.9318837523460388,0.002134799025952816,-0.002739627379924059,-0.3627294898033142,0.0,25060.125,0.0,1002.405029296875,11.4375,-0.4926444888114929,6.179893262449391e-38,-1.3490651738085058e-12,0.0,3.1221854916389622e-25
138,0.4779999852180481,69.27452850341797,0.11119942367076874,0.03449618071317673,-0.011941947974264622,0.05840114504098892,0.1006200835108757,-0.012751308269798756,-0.005033133085817099,0.005120184738188982,-0.743922233581543,0.0,0.0,0.0,0.0,0.0,0.0,0.0,0.0,0.0,0.931609034538269,0.0014703760389238596,-0.0032749141100794077,-0.3634333610534668,0.0,25060.125,0.0,1002.405029296875,11.4375,-7.188368735817304e+25,-8.109383489105384e+37,-4.475745386697772e-16,0.0,4.531819456454457e+25
138,0.4779999852180481,69.37492370605469,0.06704840064048767,0.07098923623561859,-0.04029277712106705,0.0011058201780542731,0.0972946435213089,-0.041119515895843506,-0.007219436578452587,0.008393042720854282,-0.7425523400306702,0.0,0.0,0.0,0.0,0.0,0.0,0.0,0.0,0.0,0.9318525195121765,0.0026009243447333574,-0.004886245355010033,-0.3627837598323822,0.0,25060.5,0.0,1002.4199829101562,11.4375,4.563852074035424e-11,nan,8.572894444531533e+23,0.0,1.1301203836749174e-34
138,0.4779999852180481,69.48872375488281,0.0520191416144371,0.11824020743370056,-0.07654765993356705,-0.042867809534072876,0.12171568721532822,-0.07676951587200165,-0.011711331084370613,0.005898656323552132,-0.7454066872596741,0.0,0.0,0.0,0.0,0.0,0.0,0.0,0.0,0.0,0.9313288331031799,0.0006145464139990509,-0.006527548190206289,-0.3641091287136078,0.0,25060.5,0.0,1002.4199829101562,11.4375,6.542456454252315e-20,6.319096027754496e-35,-1.9694252699706225e+24,0.0,-1.9563277756395197e+37
138,0.4779999852180481,69.589111328125,-0.031144442036747932,0.10333358496427536,-0.041447676718235016,-0.09330584853887558,0.05449052155017853,-0.041113320738077164,-0.008064351975917816,0.007632645312696695,-0.7454414963722229,0.0,0.0,0.0,0.0,0.0,0.0,0.0,0.0,0.0,0.9313275814056396,0.0020859315991401672,-0.005145000759512186,-0.36412933468818665,0.0,25060.5,0.0,1002.4199829101562,11.4375,-0.4926444888114929,6.179893262449391e-38,-1.3490651738085058e-12,0.0,3.1221854916389622e-25
138,0.4779999852180481,69.68950653076172,-0.1683969497680664,0.05172707140445709,0.021682702004909515,-0.1586068719625473,-0.07613679021596909,0.023450033739209175,-0.007402175106108189,0.00777735048905015,-0.7460895776748657,0.0,0.0,0.0,0.0,0.0,0.0,0.0,0.0,0.0,0.9312100410461426,0.0022723085712641478,-0.004863732494413853,-0.36443236470222473,0.0,25060.5,0.0,1002.4199829101562,11.4375,-7.188368735817304e+25,-8.109383489105384e+37,-4.475745386697772e-16,0.0,4.531819456454457e+25
138,0.4779999852180481,69.80329895019531,0.09997259825468063,0.0525965578854084,0.010761222802102566,0.0379427894949913,0.10653503239154816,0.009335319511592388,-0.006389640271663666,0.011115515604615211,-0.7445730566978455,0.0,0.0,0.0,0.0,0.0,0.0,0.0,0.0,0.0,0.931481659412384,0.004014878533780575,-0.00499751465395093,-0.3637208044528961,0.0,25060.125,0.0,1002.405029296875,11.4375,4.563852074035424e-11,nan,8.572894444531533e+23,0.0,1.1301203836749174e-34
