msg_type,mass,time,ax,ay,az,ax_local,ay_local,az_local,pitch,roll,yaw,vx,vy,vz,vx_local,vy_local,vz_local,x,y,z,qw,qx,qy,qz,apogee,baro_altitude,altitude,baro_pressure,baro_temperature,air_pressure,air_density,air_temperature,drag_coefficient
138,0.4779999852180481,0.0,0.37140727043151855,-0.4831186830997467,-0.017463721334934235,-0.122606061398983,-0.5968578457832336,0.01933901757001877,-0.006657793186604977,0.060271184891462326,0.8577978014945984,0.0,0.0,0.0,0.0,0.0,0.0,0.0,0.0,0.0,0.9089606404304504,0.028785381466150284,0.009504446759819984,0.41576796770095825,0.0,0.0,0.0,1014.6425170898438,22.9375,3.271218533603354e-20,6.31432058195428e-35,-2.2905461908057584e+24,0.0,-1.9563277756395197e+37
138,0.4779999852180481,0.0,0.1490451842546463,-0.2678071856498718,-0.06704334169626236,-0.10489887744188309,-0.2903759181499481,-0.05573470517992973,0.00028358708368614316,0.03920286148786545,0.8572404980659485,0.0,0.0,0.0,0.0,0.0,0.0,0.0,0.0,0.0,0.9093626737594604,0.017768148332834244,0.00827505998313427,0.4155321717262268,0.0,0.0,0.0,1014.6425170898438,22.9375,-1.4725310802459717,6.179893262449391e-38,-0.0057942504063248634,0.0,3.106029620300036e-25
138,0.4779999852180481,0.0,0.17635945975780487,-0.13750706613063812,-0.05137065798044205,0.011830814182758331,-0.22448262572288513,-0.046005506068468094,0.005607885774224997,0.02366579696536064,0.8569186925888062,0.0,0.0,0.0,0.0,0.0,0.0,0.0,0.0,0.0,0.9095496535301208,0.009598072618246078,0.00746637349948287,0.41540729999542236,0.0,0.0,0.0,1014.6425170898438,22.9375,-1.9275847985348963e+34,-5.068364680690865e+36,-9.091352853646175e-16,0.0,1.8006385243856365e+26
138,0.4779999852180481,0.0,0.11489106714725494,-0.05457110330462456,-0.006391563452780247,0.03404300659894943,-0.12260283529758453,-0.005307420622557402,0.007876803167164326,0.00665771821513772,0.8568108677864075,0.0,0.0,0.0,0.0,0.0,0.0,0.0,0.0,0.0,0.9096189737319946,0.0013918987242504954,0.004965329542756081,0.4154016971588135,0.0,0.0,0.0,1014.6425170898438,22.9375,1.80051828481409e-13,-1.6731051206588745,8.572894444531533e+23,0.0,4.850295991571352e-25
138,0.4779999852180481,0.0,-0.011079593561589718,0.03292679414153099,-0.04876617342233658,0.017997141927480698,0.029981523752212524,-0.04860272258520126,0.0077042607590556145,-0.0008627973147667944,0.8565735816955566,0.0,0.0,0.0,0.0,0.0,0.0,0.0,0.0,0.0,0.909667432308197,-0.001992271514609456,0.0033250420819967985,0.4153096675872803,0.0,-0.14581814408302307,0.0,1014.4450073242188,22.8125,3.271218533603354e-20,6.31432058195428e-35,-2.2905461908057584e+24,0.0,-1.9563277756395197e+37
138,0.4779999852180481,0.0,0.019892804324626923,0.02063051611185074,-0.04165271669626236,0.02889176830649376,-0.0014366962714120746,-0.04146626964211464,0.006617364939302206,-0.002786268014460802,0.8577895760536194,0.0,0.0,0.0,0.0,0.0,0.0,0.0,0.0,0.0,0.909414529800415,-0.002642909763380885,0.0024296538904309273,0.41586577892303467,0.0,-0.14581814408302307,0.0,1014.4450073242188,22.8125,-1.4725310802459717,6.179893262449391e-38,-0.0057942504063248634,0.0,3.106029620300036e-25
138,0.4779999852180481,0.0,0.016652848571538925,0.02249095030128956,-0.027166403830051422,0.028142141178250313,0.0022062312345951796,-0.026912854984402657,0.008740556426346302,-0.003891711588948965,0.8582874536514282,0.0,0.0,0.0,0.0,0.0,0.0,0.0,0.0,0.0,0.9093047976493835,-0.0035878224298357964,0.0031643437687307596,0.4160936176776886,0.0,-0.14581814408302307,0.0,1014.4450073242188,22.8125,-1.9275847985348963e+34,-5.068364680690865e+36,-9.091352853646175e-16,0.0,1.8006385243856365e+26
138,0.4779999852180481,0.0,0.02702808752655983,0.027386115863919258,-0.020151175558567047,0.03854052349925041,-0.002558795502409339,-0.019865471869707108,0.007602962199598551,-0.0026716662105172873,0.8599107265472412,0.0,0.0,0.0,0.0,0.0,0.0,0.0,0.0,0.0,0.9089711904525757,-0.0027988108340650797,0.002898680279031396,0.41682979464530945,0.0,-0.14581814408302307,0.0,1014.4450073242188,22.8125,1.80051828481409e-13,-1.6731051206588745,8.572894444531533e+23,0.0,4.850295991571352e-25
138,0.4779999852180481,0.0,-0.07807505130767822,0.03690841421484947,0.08775325864553452,-0.023549692705273628,0.08298463374376297,0.08784814924001694,0.007859861478209496,-0.0033439735416322947,0.8612905740737915,0.0,0.0,0.0,0.0,0.0,0.0,0.0,0.0,0.0,0.9086818695068359,-0.003159888321533799,0.0028731399215757847,0.4174577593803406,0.0,1.496513843536377,0.0,1014.6199951171875,22.9375,3.271218533603354e-20,6.31432058195428e-35,-2.2905461908057584e+24,0.0,-1.9563277756395197e+37
138,0.4779999852180481,0.0,-0.016805704683065414,0.009622742421925068,-0.07700828462839127,-0.002815640764310956,0.01934174634516239,-0.07696216553449631,0.01071110088378191,-0.004175648558884859,0.8616533875465393,0.0,0.0,0.0,0.0,0.0,0.0,0.0,0.0,0.0,0.9085975289344788,-0.0041335937567055225,0.003994245082139969,0.4176236689090729,0.0,1.496513843536377,0.0,1014.6199951171875,22.9375,-1.4725310802459717,6.179893262449391e-38,-0.0057942504063248634,0.0,3.106029620300036e-25
138,0.4779999852180481,0.0,-0.05023129656910896,0.0971183329820633,-0.006053009070456028,0.04101340100169182,0.10138671100139618,-0.005498724989593029,0.00785556249320507,-0.0022906765807420015,0.8613789081573486,0.0,0.0,0.0,0.0,0.0,0.0,0.0,0.0,0.0,0.9086650013923645,-0.002680571051314473,0.00309092178940773,0.41749629378318787,0.0,1.496513843536377,0.0,1014.6199951171875,22.9375,-1.9275847985348963e+34,-5.068364680690865e+36,-9.091352853646175e-16,0.0,1.8006385243856365e+26
138,0.4779999852180481,0.0,-0.017681553959846497,0.027404414489865303,-0.06303504854440689,0.009801594540476799,0.031561002135276794,-0.06280769407749176,0.008333610370755196,-0.00469048460945487,0.8614250421524048,0.0,0.0,0.0,0.0,0.0,0.0,0.0,0.0,0.0,0.9086503386497498,-0.0038707333151251078,0.0028070700354874134,0.41752076148986816,0.0,1.496513843536377,0.0,1014.6199951171875,22.9375,1.80051828481409e-13,-1.6731051206588745,8.572894444531533e+23,0.0,4.850295991571352e-25
138,0.4779999852180481,0.0,-0.06552958488464355,0.024073554202914238,-0.05568889528512955,-0.023895420134067535,0.0656285434961319,-0.05564790219068527,0.008557801134884357,-0.003770876443013549,0.8620936274528503,0.0,0.0,0.0,0.0,0.0,0.0,0.0,0.0,0.0,0.9085118770599365,-0.003500769380480051,0.0030997348949313164,0.4178231656551361,0.0,0.04173453524708748,0.0,1014.6174926757812,22.9375,3.271218533603354e-20,6.31432058195428e-35,-2.2905461908057584e+24,0.0,-1.9563277756395197e+37
138,0.4779999852180481,0.0,-0.020263100042939186,0.05155505612492561,0.023198090493679047,0.02564142644405365,0.048886656761169434,0.02364790253341198,0.012151475064456463,-0.002794061554595828,0.861535906791687,0.0,0.0,0.0,0.0,0.0,0.0,0.0,0.0,0.0,0.9086205363273621,-0.003806406632065773,0.004937330260872841,0.4175666570663452,0.0,0.04173453524708748,0.0,1014.6174926757812,22.9375,-1.4725310802459717,6.179893262449391e-38,-0.0057942504063248634,0.0,3.106029620300036e-25
138,0.4779999852180481,0.0,-0.030387382954359055,0.04968531057238579,-0.005080261267721653,0.018083158880472183,0.05539587885141373,-0.004698330536484718,0.015045872889459133,-0.0019924906082451344,0.8632684946060181,0.0,0.0,0.0,0.0,0.0,0.0,0.0,0.0,0.0,0.9082503914833069,-0.004052088130265474,0.006416144780814648,0.41834884881973267,0.0,0.04173453524708748,0.0,1014.6174926757812,22.9375,-1.9275847985348963e+34,-5.068364680690865e+36,-9.091352853646175e-16,0.0,1.8006385243856365e+26
138,0.4779999852180481,0.0,-0.022025423124432564,0.059996768832206726,-0.04886917024850845,0.031859517097473145,0.05584743246436119,-0.04836175590753555,0.009853550232946873,-0.0035050432197749615,0.8650553226470947,0.0,0.0,0.0,0.0,0.0,0.0,0.0,0.0,0.0,0.9078894853591919,-0.003656242275610566,0.003738469909876585,0.4191674590110779,0.0,0.04173453524708748,0.0,1014.6174926757812,22.9375,1.80051828481409e-13,-1.6731051206588745,8.572894444531533e+23,0.0,4.850295991571352e-25
138,0.4779999852180481,0.0,-0.03666844964027405,0.07184174656867981,-0.09200195223093033,0.0317593552172184,0.07462813705205917,-0.09160741418600082,0.008376791141927242,-0.0017571051139384508,0.8662918210029602,0.0,0.0,0.0,0.0,0.0,0.0,0.0,0.0,0.0,0.9076363444328308,-0.002555397106334567,0.0034328505862504244,0.41972610354423523,0.0,0.062350451946258545,0.0,1014.6224975585938,22.9375,3.271218533603354e-20,6.31432058195428e-35,-2.2905461908057584e+24,0.0,-1.9563277756395197e+37
138,0.4779999852180481,0.0,-0.0033615550491958857,0.03422222286462784,0.01586242765188217,0.023792022839188576,0.02464747615158558,0.016139892861247063,0.00902946013957262,-0.002517742570489645,0.8678509593009949,0.0,0.0,0.0,0.0,0.0,0.0,0.0,0.0,0.0,0.9073063731193542,-0.0030403390992432833,0.0035670476499944925,0.4204345941543579,0.0,0.062350451946258545,0.0,1014.6224975585938,22.9375,-1.4725310802459717,6.179893262449391e-38,-0.0057942504063248634,0.0,3.106029620300036e-25
138,0.4779999852180481,0.0,-0.07923061400651932,0.07913947850465775,0.04403778165578842,0.008955569006502628,0.11132603138685226,0.04478781670331955,0.006047433707863092,-0.006238976959139109,0.86841881275177,0.0,0.0,0.0,0.0,0.0,0.0,0.0,0.0,0.0,0.9071866869926453,-0.004102034494280815,0.0014307841192930937,0.4206961393356323,0.0,0.062350451946258545,0.0,1014.6224975585938,22.9375,-1.9275847985348963e+34,-5.068364680690865e+36,-9.091352853646175e-16,0.0,1.8006385243856365e+26
138,0.4779999852180481,0.0,-0.001964048482477665,0.03500992804765701,0.03010936826467514,0.02526334673166275,0.023976905271410942,0.03038032352924347,0.0069799828343093395,-0.003915724810212851,0.8692401647567749,0.0,0.0,0.0,0.0,0.0,0.0,0.0,0.0,0.0,0.9070163369178772,-0.003245337400585413,0.002341147046536207,0.4210669994354248,0.0,0.0206158347427845,0.0,1014.625,22.9375,1.80051828481409e-13,-1.6731051206588745,8.572894444531533e+23,0.0,4.850295991571352e-25
138,0.4779999852180481,0.0,0.03219682350754738,0.0023777654860168695,0.15232081711292267,0.02123737707734108,-0.023276668041944504,0.152481809258461,0.008768504485487938,-0.0012886294862255454,0.8702048063278198,0.0,0.0,0.0,0.0,0.0,0.0,0.0,0.0,0.0,0.9068131446838379,-0.0024322515819221735,0.003704182803630829,0.42149999737739563,0.0,0.0206158347427845,0.0,1014.625,22.9375,3.271218533603354e-20,6.31432058195428e-35,-2.2905461908057584e+24,0.0,-1.9563277756395197e+37
138,0.4779999852180481,0.0,-0.01703285425901413,0.031067926436662674,-0.027102507650852203,0.013074703514575958,0.033100858330726624,-0.0268930122256279,0.009401221759617329,-0.0026479968801140785,0.871746301651001,0.0,0.0,0.0,0.0,0.0,0.0,0.0,0.0,0.0,0.9064847230911255,-0.0031847949139773846,0.0037021227180957794,0.422201007604599,0.0,0.0206158347427845,0.0,1014.625,22.9375,-1.4725310802459717,6.179893262449391e-38,-0.0057942504063248634,0.0,3.106029620300036e-25
138,0.4779999852180481,0.0,-0.020349005237221718,0.0008082303684204817,0.09516044706106186,-0.013305896893143654,0.015954237431287766,0.09507107734680176,0.008906249888241291,-0.001629724632948637,0.8727867603302002,0.0,0.0,0.0,0.0,0.0,0.0,0.0,0.0,0.0,0.906267523765564,-0.002620703773573041,0.003691372461616993,0.4226708710193634,0.0,0.0206158347427845,0.0,1014.625,22.9375,-1.9275847985348963e+34,-5.068364680690865e+36,-9.091352853646175e-16,0.0,1.8006385243856365e+26
138,0.4779999852180481,0.0,-0.005797308869659901,0.04433651268482208,-0.07031730562448502,0.030927907675504684,0.03311951085925102,-0.06993076205253601,0.009758386760950089,-0.0026499107480049133,0.8728501796722412,0.0,0.0,0.0,0.0,0.0,0.0,0.0,0.0,0.0,0.9062506556510925,-0.0032631908543407917,0.0038618030957877636,0.4227011501789093,0.0,0.0,0.0,1014.6099853515625,22.9375,1.80051828481409e-13,-1.6731051206588745,8.572894444531533e+23,0.0,4.850295991571352e-25
138,0.4779999852180481,0.0,0.17252717912197113,0.2341776341199875,-0.42400363087654114,0.2933482527732849,0.02044578455388546,-0.42179179191589355,0.007233911659568548,-0.005021561402827501,0.8727864027023315,0.0,0.0,0.0,0.0,0.0,0.0,0.0,0.0,0.0,0.9062657356262207,-0.003804238513112068,0.002216750057414174,0.42267587780952454,0.0,0.0,0.0,1014.6099853515625,22.9375,3.271218533603354e-20,6.31432058195428e-35,-2.2905461908057584e+24,0.0,-1.9563277756395197e+37
138,0.4779999852180481,0.0,-0.219033345580101,-0.05526537075638771,0.24274440109729767,-0.18951255083084106,0.12836191058158875,0.23991899192333221,0.01803809031844139,-0.004313488956540823,0.8570865392684937,0.0,0.0,0.0,0.0,0.0,0.0,0.0,0.0,0.0,0.9095211625099182,-0.005709411110728979,0.007307188585400581,0.4155443608760834,0.0,0.0,0.0,1014.6099853515625,22.9375,-1.4725310802459717,6.179893262449391e-38,-0.0057942504063248634,0.0,3.106029620300036e-25
138,0.4779999852180481,0.0,-0.2743813395500183,0.0035718099679797888,0.04730125516653061,-0.19047461450099945,0.19876684248447418,0.04177528992295265,0.03040849044919014,-0.0012395753292366862,0.797365665435791,0.0,0.0,0.0,0.0,0.0,0.0,0.0,0.0,0.0,0.9214590191841125,-0.006473267916589975,0.013770762830972672,0.38816696405410767,0.0,0.0,0.0,1014.6099853515625,22.9375,-1.9275847985348963e+34,-5.068364680690865e+36,-9.091352853646175e-16,0.0,1.8006385243856365e+26
138,0.4779999852180481,0.0,0.023612549528479576,0.3385127782821655,-0.36411288380622864,0.25256770849227905,0.2438257783651352,-0.35281869769096375,0.049281928688287735,0.002960873069241643,0.6950147151947021,0.0,0.0,0.0,0.0,0.0,0.0,0.0,0.0,0.0,0.9399465322494507,-0.006999272387474775,0.023669781163334846,0.34041574597358704,0.0,0.12470127642154694,0.0,1014.6500244140625,23.0,1.80051828481409e-13,-1.6731051206588745,8.572894444531533e+23,0.0,4.850295991571352e-25
138,0.4779999852180481,0.0,0.030744381248950958,0.45388084650039673,-0.947691023349762,0.34863847494125366,0.337361216545105,-0.9325724244117737,0.07233639061450958,0.022058788686990738,0.5978403091430664,0.0,0.0,0.0,0.0,0.0,0.0,0.0,0.0,0.0,0.9550853967666626,-0.00011504283611429855,0.03780065104365349,0.29389551281929016,0.0,0.12470127642154694,0.0,1014.6500244140625,23.0,3.271218533603354e-20,6.31432058195428e-35,-2.2905461908057584e+24,0.0,-1.9563277756395197e+37
138,0.4779999852180481,0.0,-0.15290038287639618,-0.13088323175907135,-0.24208931624889374,-0.1591310352087021,-0.041951462626457214,-0.26838773488998413,0.15001828968524933,0.012491416186094284,0.5150097608566284,0.0,0.0,0.0,0.0,0.0,0.0,0.0,0.0,0.0,0.9644057154655457,-0.013061529956758022,0.07405295222997665,0.2534937560558319,0.0,0.12470127642154694,0.0,1014.6500244140625,23.0,-1.4725310802459717,6.179893262449391e-38,-0.0057942504063248634,0.0,3.106029620300036e-25
138,0.4779999852180481,0.0,0.26303157210350037,2.222733974456787,0.7264146208763123,1.0667798519134521,1.934846043586731,0.80973219871521,0.061344657093286514,-0.00847712717950344,0.40286940336227417,0.0,0.0,0.0,0.0,0.0,0.0,0.0,0.0,0.0,0.9792807102203369,-0.010286660864949226,0.029199671000242233,0.20010584592819214,0.0,0.12470127642154694,0.0,1014.6500244140625,23.0,-1.9275847985348963e+34,-5.068364680690865e+36,-9.091352853646175e-16,0.0,1.8006385243856365e+26
138,0.4779999852180481,0.0,0.03460218012332916,-0.04363509267568588,-0.09142021089792252,0.021447351202368736,-0.052225105464458466,-0.09094692021608353,0.05501122400164604,-0.010813238099217415,0.37067052721977234,0.0,0.0,0.0,0.0,0.0,0.0,0.0,0.0,0.0,0.9824568033218384,-0.010379903949797153,0.026034951210021973,0.18434903025627136,0.0,-0.20816735923290253,0.0,1014.6325073242188,23.0,1.80051828481409e-13,-1.6731051206588745,8.572894444531533e+23,0.0,4.850295991571352e-25
138,0.4779999852180481,0.0,0.17724566161632538,0.12281420826911926,0.10782619565725327,0.20576311647891998,0.05057733878493309,0.11501449346542358,0.03495622053742409,0.0014337579486891627,0.3699784278869629,0.0,0.0,0.0,0.0,0.0,0.0,0.0,0.0,0.0,0.9827859997749329,-0.002510164398699999,0.017310936003923416,0.18389467895030975,0.0,-0.20816735923290253,0.0,1014.6325073242188,23.0,3.271218533603354e-20,6.31432058195428e-35,-2.2905461908057584e+24,0.0,-1.9563277756395197e+37
138,0.4779999852180481,0.0,0.05374106019735336,-0.11454174667596817,-0.009957351721823215,0.008373767137527466,-0.12631410360336304,-0.009023020975291729,0.027988597750663757,0.005572293885052204,0.3746405839920044,0.0,0.0,0.0,0.0,0.0,0.0,0.0,0.0,0.0,0.9824098944664001,0.0001310967782046646,0.014267850667238235,0.18616870045661926,0.0,-0.20816735923290253,0.0,1014.6325073242188,23.0,-1.4725310802459717,6.179893262449391e-38,-0.0057942504063248634,0.0,3.106029620300036e-25
138,0.4779999852180481,0.0,0.08134812861680984,-0.2429114729166031,-0.08997348695993423,-0.013495891354978085,-0.2562551200389862,-0.08870556205511093,0.025020448490977287,0.006379999220371246,0.3846777081489563,0.0,0.0,0.0,0.0,0.0,0.0,0.0,0.0,0.0,0.9814815521240234,0.0007395828724838793,0.012888936325907707,0.19109922647476196,0.0,-0.20816735923290253,0.0,1014.6325073242188,23.0,-1.9275847985348963e+34,-5.068364680690865e+36,-9.091352853646175e-16,0.0,1.8006385243856365e+26
138,0.4779999852180481,0.0,0.032008491456508636,-0.08886575698852539,-0.1252489537000656,-0.0017852854216471314,-0.09481005370616913,-0.12496571242809296,0.02401663362979889,0.003819655394181609,0.39650455117225647,0.0,0.0,0.0,0.0,0.0,0.0,0.0,0.0,0.0,0.980340301990509,-0.0004927858244627714,0.012148969806730747,0.1969182938337326,0.0,-0.0623500794172287,0.0,1014.6500244140625,23.0,1.80051828481409e-13,-1.6731051206588745,8.572894444531533e+23,0.0,4.850295991571352e-25
138,0.4779999852180481,0.0,-0.048860739916563034,-0.09140074253082275,-0.07250884920358658,-0.07918521761894226,-0.06484092772006989,-0.07432428002357483,0.025643158704042435,0.0036914979573339224,0.4073205888271332,0.0,0.0,0.0,0.0,0.0,0.0,0.0,0.0,0.0,0.979251503944397,-0.0007857218733988702,0.012929558753967285,0.20221436023712158,0.0,-0.0623500794172287,0.0,1014.6500244140625,23.0,3.271218533603354e-20,6.31432058195428e-35,-2.2905461908057584e+24,0.0,-1.9563277756395197e+37
138,0.4779999852180481,0.0,0.0354330874979496,-0.14102007448673248,-0.23837284743785858,-0.01834177039563656,-0.14259004592895508,-0.239361971616745,0.0259922556579113,-0.0030337779317051172,0.4157879650592804,0.0,0.0,0.0,0.0,0.0,0.0,0.0,0.0,0.0,0.9783759117126465,-0.00416642427444458,0.012402914464473724,0.20640046894550323,0.0,-0.0623500794172287,0.0,1014.6500244140625,23.0,-1.4725310802459717,6.179893262449391e-38,-0.0057942504063248634,0.0,3.106029620300036e-25
138,0.4779999852180481,0.0,-0.07204297184944153,-0.022277643904089928,0.11586948484182358,-0.07830201834440231,0.008600160479545593,0.11360783874988556,0.03013451024889946,-0.005280327517539263,0.4222068786621094,0.0,0.0,0.0,0.0,0.0,0.0,0.0,0.0,0.0,0.9776735901832581,-0.005738305859267712,0.014179066754877567,0.20955249667167664,0.0,-0.0623500794172287,0.0,1014.6500244140625,23.0,-1.9275847985348963e+34,-5.068364680690865e+36,-9.091352853646175e-16,0.0,1.8006385243856365e+26
138,0.4779999852180481,0.0,-0.0029547226149588823,-0.022255046293139458,-0.12477973848581314,-0.00898334477096796,-0.018951615318655968,-0.12503549456596375,0.024014629423618317,-0.0002639640588313341,0.43104931712150574,0.0,0.0,0.0,0.0,0.0,0.0,0.0,0.0,0.0,0.9767895936965942,-0.002696751384064555,0.011701059527695179,0.21384523808956146,0.0,-0.20816735923290253,0.0,1014.64501953125,23.0,1.80051828481409e-13,-1.6731051206588745,8.572894444531533e+23,0.0,4.850295991571352e-25
138,0.4779999852180481,0.0,-0.1087179109454155,-0.06779290735721588,-0.028117217123508453,-0.12638185918331146,-0.015789352357387543,-0.031369954347610474,0.025221483781933784,-0.003520981175825,0.4331490695476532,0.0,0.0,0.0,0.0,0.0,0.0,0.0,0.0,0.0,0.9765511751174927,-0.004429019521921873,0.011937580071389675,0.214888796210289,0.0,-0.20816735923290253,0.0,1014.64501953125,23.0,3.271218533603354e-20,6.31432058195428e-35,-2.2905461908057584e+24,0.0,-1.9563277756395197e+37
138,0.4779999852180481,0.0,-0.016697270795702934,0.005432734731584787,0.02649017423391342,-0.013534631580114365,0.011869357898831367,0.026190821081399918,0.025749986991286278,-0.0034132618457078934,0.43465691804885864,0.0,0.0,0.0,0.0,0.0,0.0,0.0,0.0,0.0,0.9763860702514648,-0.004442398436367512,0.012203863821923733,0.2156241238117218,0.0,-0.20816735923290253,0.0,1014.64501953125,23.0,-1.4725310802459717,6.179893262449391e-38,-0.0057942504063248634,0.0,3.106029620300036e-25
138,0.4779999852180481,0.0,-0.020587565377354622,-0.0037048987578600645,-0.05901531130075455,-0.018592581152915955,0.00552744185552001,-0.05953219160437584,0.027433624491095543,-0.002765367738902569,0.4373180866241455,0.0,0.0,0.0,0.0,0.0,0.0,0.0,0.0,0.0,0.9760884046554565,-0.004325005691498518,0.01308992225676775,0.21691781282424927,0.0,-0.20816735923290253,0.0,1014.64501953125,23.0,-1.9275847985348963e+34,-5.068364680690865e+36,-9.091352853646175e-16,0.0,1.8006385243856365e+26
138,0.4779999852180481,0.0,1.4637937545776367,0.8580235838890076,-0.595731794834137,1.7093509435653687,0.05430835112929344,-0.5557949542999268,0.023558026179671288,0.003252397757023573,0.4971049129962921,0.0,0.0,0.0,0.0,0.0,0.0,0.0,0.0,0.0,0.9692016243934631,-0.0013214837526902556,0.011816824786365032,0.2459641546010971,0.0,-0.1669364720582962,0.0,1014.6599731445312,23.0,1.80051828481409e-13,-1.6731051206588745,8.572894444531533e+23,0.0,4.850295991571352e-25
138,0.4779999852180481,0.0,-0.4351736307144165,1.572242259979248,-0.0066728973761200905,0.6741420030593872,1.4854947328567505,-0.012628979980945587,0.005802298430353403,0.006642547436058521,0.696020245552063,0.0,0.0,0.0,0.0,0.0,0.0,0.0,0.0,0.0,0.9400433897972107,0.0021327720023691654,0.0038598624523729086,0.3410140872001648,0.0,-0.1669364720582962,0.0,1014.6599731445312,23.0,3.271218533603354e-20,6.31432058195428e-35,-2.2905461908057584e+24,0.0,-1.9563277756395197e+37
138,0.4779999852180481,0.0,-0.52890944480896,-0.4391322135925293,-0.011257209815084934,-0.6786479353904724,0.1085108071565628,-0.019062623381614685,0.01280184742063284,-0.008151738904416561,0.8511978983879089,0.0,0.0,0.0,0.0,0.0,0.0,0.0,0.0,0.0,0.910750687122345,-0.006354862824082375,0.0041471016593277454,0.4128764569759369,0.0,-0.1669364720582962,0.0,1014.6599731445312,23.0,-1.4725310802459717,6.179893262449391e-38,-0.0057942504063248634,0.0,3.106029620300036e-25
138,0.4779999852180481,0.0,-0.09123232960700989,0.30766746401786804,-0.1580973118543625,0.20606641471385956,0.2470623254776001,-0.15643566846847534,0.00418431730940938,-0.0032392628490924835,0.9828754663467407,0.0,0.0,0.0,0.0,0.0,0.0,0.0,0.0,0.0,0.8816470503807068,-0.002415226073935628,0.0010802773758769035,0.4718933701515198,0.0,-0.2906286418437958,0.0,1014.6624755859375,23.0,-1.9275847985348963e+34,-5.068364680690865e+36,-9.091352853646175e-16,0.0,1.8006385243856365e+26
138,0.4779999852180481,0.0,-0.897955060005188,0.321755975484848,-0.2856903374195099,0.0025687702000141144,0.953822135925293,-0.28577879071235657,-0.0012040769215673208,9.176562161883339e-05,1.2297817468643188,0.0,0.0,0.0,0.0,0.0,0.0,0.0,0.0,0.0,0.8168328404426575,0.000384777580620721,-0.00046530069084838033,0.5768669247627258,0.0,-0.2906286418437958,0.0,1014.6624755859375,23.0,1.80051828481409e-13,-1.6731051206588745,8.572894444531533e+23,0.0,4.850295991571352e-25
138,0.4779999852180481,0.0,0.11362156271934509,-0.4982605278491974,0.30578991770744324,-0.4707733392715454,-0.20274822413921356,0.30321693420410156,0.0017726520309224725,-0.008619764819741249,1.3926268815994263,0.0,0.0,0.0,0.0,0.0,0.0,0.0,0.0,0.0,0.7671988010406494,-0.0038750488311052322,-0.00208431389182806,0.6413877010345459,0.0,-0.2906286418437958,0.0,1014.6624755859375,23.0,3.271218533603354e-20,6.31432058195428e-35,-2.2905461908057584e+24,0.0,-1.9563277756395197e+37
138,0.4779999852180481,0.0,-0.10076446831226349,0.11575865745544434,-0.09316066652536392,0.10200895369052887,0.11661884188652039,-0.09069815278053284,0.008953360840678215,-0.013379547744989395,1.4361103773117065,0.0,0.0,0.0,0.0,0.0,0.0,0.0,0.0,0.0,0.753039538860321,-0.007983110845088959,-0.0010299939895048738,0.6579198837280273,0.0,-0.2906286418437958,0.0,1014.6624755859375,23.0,-1.4725310802459717,6.179893262449391e-38,-0.0057942504063248634,0.0,3.106029620300036e-25
138,0.4779999852180481,0.0,-0.06880595535039902,0.07064614444971085,0.03678985685110092,0.06106787919998169,0.07686607539653778,0.03795745223760605,0.005504576489329338,-0.010784881189465523,1.4426249265670776,0.0,0.0,0.0,0.0,0.0,0.0,0.0,0.0,0.0,0.7509129643440247,-0.0058668553829193115,-0.0014941866975277662,0.6603671312332153,0.0,-0.31174665689468384,0.0,1014.6525268554688,23.0,-1.9275847985348963e+34,-5.068364680690865e+36,-9.091352853646175e-16,0.0,1.8006385243856365e+26
138,0.4779999852180481,0.0,-0.09906812757253647,0.16464856266975403,-0.01485923770815134,0.15069901943206787,0.11958224326372147,-0.011564434505999088,0.013927142135798931,-0.010016254149377346,1.4415597915649414,0.0,0.0,0.0,0.0,0.0,0.0,0.0,0.0,0.0,0.7512375712394714,-0.008358117192983627,0.0019264726433902979,0.6599701046943665,0.0,-0.31174665689468384,0.0,1014.6525268554688,23.0,1.80051828481409e-13,-1.6731051206588745,8.572894444531533e+23,0.0,4.850295991571352e-25
138,0.4779999852180481,0.0,-0.06408371776342392,0.08691610395908356,0.02233787626028061,0.07756242901086807,0.07468094676733017,0.0238063745200634,0.010855764150619507,-0.008362180553376675,1.4399259090423584,0.0,0.0,0.0,0.0,0.0,0.0,0.0,0.0,0.0,0.7517945170402527,-0.006722277961671352,0.001324034878052771,0.6593558192253113,0.0,-0.31174665689468384,0.0,1014.6525268554688,23.0,3.271218533603354e-20,6.31432058195428e-35,-2.2905461908057584e+24,0.0,-1.9563277756395197e+37
138,0.4779999852180481,0.0,-0.08788029849529266,0.13189075887203217,-0.02854255586862564,0.11945115774869919,0.10475977510213852,-0.02625252678990364,0.013668237254023552,-0.006301972549408674,1.4378039836883545,0.0,0.0,0.0,0.0,0.0,0.0,0.0,0.0,0.0,0.7524908185005188,-0.006871769670397043,0.0030677798204123974,0.6585537195205688,0.0,-0.31174665689468384,0.0,1014.6525268554688,23.0,-1.4725310802459717,6.179893262449391e-38,-0.0057942504063248634,0.0,3.106029620300036e-25
138,0.4779999852180481,0.0,-0.030521176755428314,0.14046405255794525,-0.021229781210422516,0.13530799746513367,0.04944752901792526,-0.018940424546599388,0.01455478835850954,-0.006518076173961163,1.4345015287399292,0.0,0.0,0.0,0.0,0.0,0.0,0.0,0.0,0.0,0.7535730600357056,-0.00723947724327445,0.003342156996950507,0.6573095917701721,0.0,-0.22928555309772491,0.0,1014.6875,23.0,-1.9275847985348963e+34,-5.068364680690865e+36,-9.091352853646175e-16,0.0,1.8006385243856365e+26
138,0.4779999852180481,0.0,-0.022482052445411682,0.13415107131004333,-0.013880767859518528,0.12993280589580536,0.040858492255210876,-0.0119324354454875,0.012539088726043701,-0.007840419188141823,1.432476282119751,0.0,0.0,0.0,0.0,0.0,0.0,0.0,0.0,0.0,0.7542412281036377,-0.0070731001906096935,0.0021551959216594696,0.6565498113632202,0.0,-0.22928555309772491,0.0,1014.6875,23.0,1.80051828481409e-13,-1.6731051206588745,8.572894444531533e+23,0.0,4.850295991571352e-25
138,0.4779999852180481,0.0,-0.03911525011062622,0.12005041539669037,-0.06405166536569595,0.11406996846199036,0.055920496582984924,-0.06249275058507919,0.010185390710830688,-0.007178958971053362,1.43091881275177,0.0,0.0,0.0,0.0,0.0,0.0,0.0,0.0,0.0,0.7547623515129089,-0.006049862131476402,0.0014893743209540844,0.6559627056121826,0.0,-0.22928555309772491,0.0,1014.6875,23.0,3.271218533603354e-20,6.31432058195428e-35,-2.2905461908057584e+24,0.0,-1.9563277756395197e+37
138,0.4779999852180481,0.0,-0.03025391325354576,0.16836798191070557,-0.028753317892551422,0.16275955736637115,0.05396938696503639,-0.02619120478630066,0.01295927818864584,-0.00844651460647583,1.4289854764938354,0.0,0.0,0.0,0.0,0.0,0.0,0.0,0.0,0.0,0.7553821206092834,-0.007435899693518877,0.002127682091668248,0.6552327275276184,0.0,-0.22928555309772491,0.0,1014.6875,23.0,-1.4725310802459717,6.179893262449391e-38,-0.0057942504063248634,0.0,3.106029620300036e-25
138,0.4779999852180481,0.0,-0.08709511160850525,0.09785006195306778,0.029301606118679047,0.08408460021018982,0.09995894134044647,0.030927052721381187,0.011522014625370502,-0.006544677074998617,1.4276902675628662,0.0,0.0,0.0,0.0,0.0,0.0,0.0,0.0,0.0,0.7558180093765259,-0.006245305761694908,0.002211927203461528,0.6547422409057617,0.0,-0.5199077725410461,0.0,1014.6849975585938,23.0625,-1.9275847985348963e+34,-5.068364680690865e+36,-9.091352853646175e-16,0.0,1.8006385243856365e+26
138,0.4779999852180481,0.0,-0.03492044657468796,0.1016593649983406,-0.02791980654001236,0.09589115530252457,0.04938266798853874,-0.026450352743268013,0.011994793079793453,-0.00651122722774744,1.426143765449524,0.0,0.0,0.0,0.0,0.0,0.0,0.0,0.0,0.0,0.7563225030899048,-0.006385574582964182,0.0024064905010163784,0.6541572213172913,0.0,-0.5199077725410461,0.0,1014.6849975585938,23.0625,1.80051828481409e-13,-1.6731051206588745,8.572894444531533e+23,0.0,4.850295991571352e-25
138,0.4779999852180481,0.0,-0.027359042316675186,0.15228059887886047,0.057703934609889984,0.1460786759853363,0.04892326518893242,0.05945371091365814,0.009788736701011658,-0.006464140955358744,1.4242174625396729,0.0,0.0,0.0,0.0,0.0,0.0,0.0,0.0,0.0,0.7569593191146851,-0.005644705146551132,0.001593048102222383,0.6534296274185181,0.0,-0.5199077725410461,0.0,1014.6849975585938,23.0625,3.271218533603354e-20,6.31432058195428e-35,-2.2905461908057584e+24,0.0,-1.9563277756395197e+37
138,0.4779999852180481,0.0,-0.3015369772911072,-1.6621947288513184,-0.009108581580221653,-1.6882004737854004,0.05213618278503418,-0.03333151713013649,0.014533471316099167,-0.006059414707124233,1.4220861196517944,0.0,0.0,0.0,0.0,0.0,0.0,0.0,0.0,0.0,0.7576404809951782,-0.00703788548707962,0.0035286243073642254,0.6526181101799011,0.0,-0.5199077725410461,0.0,1014.6849975585938,23.0625,-1.4725310802459717,6.179893262449391e-38,-0.0057942504063248634,0.0,3.106029620300036e-25
138,0.4779999852180481,0.0,-0.017219727858901024,-0.48482224345207214,0.2470521479845047,-0.48546987771987915,-0.05780228599905968,0.23949292302131653,0.014936692081391811,-0.0058282408863306046,1.418759822845459,0.0,0.0,0.0,0.0,0.0,0.0,0.0,0.0,0.0,0.7587242126464844,-0.007075623143464327,0.0037685853894799948,0.6513562798500061,0.0,-0.4987901747226715,0.0,1014.655029296875,23.0,-1.9275847985348963e+34,-5.068364680690865e+36,-9.091352853646175e-16,0.0,1.8006385243856365e+26
138,0.4779999852180481,0.0,-0.12116889655590057,-0.44763633608818054,-0.09857086092233658,-0.4623086750507355,0.015518476255238056,-0.10393515229225159,0.012169611640274525,-0.018452055752277374,1.3357720375061035,0.0,0.0,0.0,0.0,0.0,0.0,0.0,0.0,0.0,0.7850466966629028,-0.011011708527803421,-0.0009365564910694957,0.6193313002586365,0.0,-0.4987901747226715,0.0,1014.655029296875,23.0,1.80051828481409e-13,-1.6731051206588745,8.572894444531533e+23,0.0,4.850295991571352e-25
138,0.4779999852180481,0.0,0.40516895055770874,-0.5338561534881592,-0.2946644127368927,-0.3209887444972992,-0.5796619057655334,-0.31135284900665283,0.01560657937079668,-0.019983461126685143,1.1565630435943604,0.0,0.0,0.0,0.0,0.0,0.0,0.0,0.0,0.0,0.8372897505760193,-0.012631606310606003,0.001073078135959804,0.5466047525405884,0.0,-0.4987901747226715,0.0,1014.655029296875,23.0,3.271218533603354e-20,6.31432058195428e-35,-2.2905461908057584e+24,0.0,-1.9563277756395197e+37
138,0.4779999852180481,0.0,-0.3119281232357025,0.6139159798622131,-0.09154132753610611,0.3130020797252655,0.6171872615814209,-0.06060875579714775,0.0209746602922678,-0.03959855064749718,0.9389446377754211,0.0,0.0,0.0,0.0,0.0,0.0,0.0,0.0,0.0,0.8914856910705566,-0.0223985742777586,0.00039432011544704437,0.45248550176620483,0.0,-0.4987901747226715,0.0,1014.655029296875,23.0,-1.4725310802459717,6.179893262449391e-38,-0.0057942504063248634,0.0,3.106029620300036e-25
138,0.4779999852180481,0.0,-0.044740915298461914,-1.1393647193908691,-1.4414196014404297,-0.7198696732521057,-0.7823926210403442,-1.4991456270217896,0.04453405365347862,-0.030102023854851723,0.7198903560638428,0.0,0.0,0.0,0.0,0.0,0.0,0.0,0.0,0.0,0.9354562163352966,-0.02192385494709015,0.015536299906671047,0.35240787267684937,0.0,-0.24939808249473572,0.0,1014.6425170898438,23.0625,-1.9275847985348963e+34,-5.068364680690865e+36,-9.091352853646175e-16,0.0,1.8006385243856365e+26
138,0.4779999852180481,0.0,-0.1825495958328247,2.072389602661133,0.738923966884613,0.6550038456916809,1.9485141038894653,0.8051786422729492,0.029514817520976067,-0.023801300674676895,0.4193675220012665,0.0,0.0,0.0,0.0,0.0,0.0,0.0,0.0,0.0,0.9778803586959839,-0.014709845185279846,0.011955900117754936,0.20828408002853394,0.0,-0.24939808249473572,0.0,1014.6425170898438,23.0625,1.80051828481409e-13,-1.6731051206588745,8.572894444531533e+23,0.0,4.850295991571352e-25
138,0.4779999852180481,0.0,-1.0374162197113037,-0.3554799258708954,1.3951148986816406,-1.1320480108261108,-0.09502111375331879,1.363205909729004,0.027350731194019318,-0.01743122562766075,0.2651059925556183,0.0,0.0,0.0,0.0,0.0,0.0,0.0,0.0,0.0,0.9910775423049927,-0.010445493273437023,0.012402745895087719,0.1322653740644455,0.0,-0.24939808249473572,0.0,1014.6425170898438,23.0625,3.271218533603354e-20,6.31432058195428e-35,-2.2905461908057584e+24,0.0,-1.9563277756395197e+37
138,0.4779999852180481,0.0,-0.5905159115791321,-0.27563729882240295,-0.3802471458911896,-0.6046785712242126,-0.21408167481422424,-0.39723584055900574,0.02549254335463047,-0.006730988156050444,0.0976492166519165,0.0,0.0,0.0,0.0,0.0,0.0,0.0,0.0,0.0,0.9987152814865112,-0.003983256872743368,0.012566478922963142,0.048843614757061005,0.0,-0.24939808249473572,0.0,1014.6425170898438,23.0625,-1.4725310802459717,6.179893262449391e-38,-0.0057942504063248634,0.0,3.106029620300036e-25
138,0.4779999852180481,0.0,0.49244290590286255,0.5365340709686279,-0.4463367760181427,0.49574536085128784,0.5370410084724426,-0.44203683733940125,0.016910040751099586,0.007469893433153629,-0.007746193092316389,0.0,0.0,0.0,0.0,0.0,0.0,0.0,0.0,0.0,0.9999454617500305,0.0037675073835998774,0.008440366946160793,-0.0039044837467372417,0.0,-0.14581814408302307,0.0,1014.66748046875,23.0625,-1.9275847985348963e+34,-5.068364680690865e+36,-9.091352853646175e-16,0.0,1.8006385243856365e+26
138,0.4779999852180481,0.0,-0.22599762678146362,0.05374922230839729,-0.0988483801484108,-0.22447103261947632,0.05171249434351921,-0.103307344019413,0.015200073830783367,0.01965143345296383,-7.192584598669782e-05,0.0,0.0,0.0,0.0,0.0,0.0,0.0,0.0,0.0,0.9999186396598816,0.009825506247580051,0.007599275559186935,-0.00011063419515267015,0.0,-0.14581814408302307,0.0,1014.66748046875,23.0625,1.80051828481409e-13,-1.6731051206588745,8.572894444531533e+23,0.0,4.850295991571352e-25
138,0.4779999852180481,0.0,-0.09567280858755112,-0.26671963930130005,0.02112670987844467,-0.09963022172451019,-0.264568567276001,0.02854624204337597,0.011087234131991863,0.0321647934615612,0.014020941220223904,0.0,0.0,0.0,0.0,0.0,0.0,0.0,0.0,0.0,0.9998270869255066,0.016042135655879974,0.005655496381223202,0.006920220796018839,0.0,-0.14581814408302307,0.0,1014.66748046875,23.0625,3.271218533603354e-20,6.31432058195428e-35,-2.2905461908057584e+24,0.0,-1.9563277756395197e+37
138,0.4779999852180481,0.0,-0.2058631032705307,-0.39466145634651184,-0.0325956717133522,-0.2175987958908081,-0.38925883173942566,-0.018017718568444252,0.009302480146288872,0.04270898550748825,0.030785102397203445,0.0,0.0,0.0,0.0,0.0,0.0,0.0,0.0,0.0,0.9996399879455566,0.021278442814946175,0.004978289362043142,0.015288894064724445,0.0,-0.3529769778251648,0.0,1014.6599731445312,23.0625,-1.4725310802459717,6.179893262449391e-38,-0.0057942504063248634,0.0,3.106029620300036e-25
138,0.4779999852180481,0.0,-0.2802407443523407,-0.45190009474754333,-0.005488433875143528,-0.3018753230571747,-0.43753114342689514,0.01454976573586464,0.008026341907680035,0.05131533369421959,0.048755623400211334,0.0,0.0,0.0,0.0,0.0,0.0,0.0,0.0,0.0,0.9993640780448914,0.02554912492632866,0.004636003635823727,0.024264147505164146,0.0,-0.3529769778251648,0.0,1014.6599731445312,23.0625,-1.9275847985348963e+34,-5.068364680690865e+36,-9.091352853646175e-16,0.0,1.8006385243856365e+26
138,0.4779999852180481,0.0,-0.2169361710548401,-0.5689301490783691,-0.13395504653453827,-0.2518734037876129,-0.5609257817268372,-0.10296737402677536,0.008734414353966713,0.05953342095017433,0.06431866437196732,0.0,0.0,0.0,0.0,0.0,0.0,0.0,0.0,0.0,0.999030590057373,0.029606156051158905,0.0053199781104922295,0.03200919181108475,0.0,-0.3529769778251648,0.0,1014.6599731445312,23.0625,1.80051828481409e-13,-1.6731051206588745,8.572894444531533e+23,0.0,4.850295991571352e-25
138,0.4779999852180481,0.0,-0.16274599730968475,-0.5503219962120056,-0.1189747229218483,-0.20655664801597595,-0.5416320562362671,-0.08636379987001419,0.007497391197830439,0.06343545019626617,0.08233872056007385,0.0,0.0,0.0,0.0,0.0,0.0,0.0,0.0,0.0,0.998643696308136,0.031530965119600296,0.005048838444054127,0.04101778566837311,0.0,-0.3529769778251648,0.0,1014.6599731445312,23.0625,3.271218533603354e-20,6.31432058195428e-35,-2.2905461908057584e+24,0.0,-1.9563277756395197e+37
138,0.4779999852180481,0.0,-0.09581161290407181,-0.6028748750686646,0.028104744851589203,-0.15812326967716217,-0.5866392254829407,0.06536824256181717,0.006578746251761913,0.06510286033153534,0.10410714149475098,0.0,0.0,0.0,0.0,0.0,0.0,0.0,0.0,0.0,0.9981124401092529,0.0323302298784256,0.004976523108780384,0.05189508944749832,0.0,-0.2906286418437958,0.0,1014.655029296875,23.0625,-1.4725310802459717,6.179893262449391e-38,-0.0057942504063248634,0.0,3.106029620300036e-25
138,0.4779999852180481,0.0,-0.1341012865304947,-0.5311779379844666,0.03388115018606186,-0.19993336498737335,-0.5069188475608826,0.06584762036800385,0.007440701127052307,0.06576042622327805,0.1258017122745514,0.0,0.0,0.0,0.0,0.0,0.0,0.0,0.0,0.0,0.9974794983863831,0.032575178891420364,0.005777427926659584,0.06270264089107513,0.0,-0.2906286418437958,0.0,1014.655029296875,23.0625,-1.9275847985348963e+34,-5.068364680690865e+36,-9.091352853646175e-16,0.0,1.8006385243856365e+26
138,0.4779999852180481,0.0,-0.07090500742197037,-0.6130091547966003,-0.0861692801117897,-0.15954619646072388,-0.6002630591392517,-0.0495542548596859,0.011566237546503544,0.06429595500230789,0.14805127680301666,0.0,0.0,0.0,0.0,0.0,0.0,0.0,0.0,0.0,0.9967389106750488,0.03162625432014465,0.00814143568277359,0.07373291254043579,0.0,-0.2906286418437958,0.0,1014.655029296875,23.0625,1.80051828481409e-13,-1.6731051206588745,8.572894444531533e+23,0.0,4.850295991571352e-25
138,0.4779999852180481,0.0,-0.07604289799928665,-0.5255848169326782,0.01980491727590561,-0.16387586295604706,-0.5031219124794006,0.049219369888305664,0.010390696115791798,0.06169964000582695,0.16963154077529907,0.0,0.0,0.0,0.0,0.0,0.0,0.0,0.0,0.0,0.9959272146224976,0.030293598771095276,0.007787161972373724,0.08451264351606369,0.0,-0.2906286418437958,0.0,1014.655029296875,23.0625,3.271218533603354e-20,6.31432058195428e-35,-2.2905461908057584e+24,0.0,-1.9563277756395197e+37
138,0.4779999852180481,0.0,-0.06585095822811127,-0.5770941972732544,-0.012079277075827122,-0.17416946589946747,-0.5539335012435913,0.018353436142206192,0.010072456672787666,0.05808413401246071,0.1911660134792328,0.0,0.0,0.0,0.0,0.0,0.0,0.0,0.0,0.0,0.9950127601623535,0.02842450514435768,0.007782392669469118,0.09525009244680405,0.0,-0.24939808249473572,0.0,1014.6699829101562,23.0625,-1.4725310802459717,6.179893262449391e-38,-0.0057942504063248634,0.0,3.106029620300036e-25
138,0.4779999852180481,0.0,0.032554127275943756,-0.5260677933692932,0.046173058450222015,-0.07874013483524323,-0.5180332064628601,0.07332081347703934,0.009554816409945488,0.05367642268538475,0.21091718971729279,0.0,0.0,0.0,0.0,0.0,0.0,0.0,0.0,0.0,0.9940842390060425,0.026182783767580986,0.0075738513842225075,0.10509619116783142,0.0,-0.24939808249473572,0.0,1014.6699829101562,23.0625,-1.9275847985348963e+34,-5.068364680690865e+36,-9.091352853646175e-16,0.0,1.8006385243856365e+26
138,0.4779999852180481,0.0,-0.09874270856380463,-0.44405534863471985,0.017346344888210297,-0.19791828095912933,-0.4083750247955322,0.035928331315517426,0.010579588823020458,0.05053704231977463,0.2309040129184723,0.0,0.0,0.0,0.0,0.0,0.0,0.0,0.0,0.0,0.9930229783058167,0.02448800951242447,0.008163361810147762,0.11502405256032944,0.0,-0.24939808249473572,0.0,1014.6699829101562,23.0625,1.80051828481409e-13,-1.6731051206588745,8.572894444531533e+23,0.0,4.850295991571352e-25
138,0.4779999852180481,0.0,-0.07735452800989151,-0.4133508503437042,-0.05342677980661392,-0.1770678162574768,-0.3833344578742981,-0.037359416484832764,0.011242940090596676,0.04724222794175148,0.2512243986129761,0.0,0.0,0.0,0.0,0.0,0.0,0.0,0.0,0.0,0.991841197013855,0.022728286683559418,0.008534586988389492,0.12511295080184937,0.0,-0.24939808249473572,0.0,1014.6699829101562,23.0625,3.271218533603354e-20,6.31432058195428e-35,-2.2905461908057584e+24,0.0,-1.9563277756395197e+37
138,0.4779999852180481,0.0,-0.005304230377078056,-0.3974185287952423,-0.02547840029001236,-0.11160271614789963,-0.38217297196388245,-0.01023456733673811,0.0120640704408288,0.04345367103815079,0.2721051573753357,0.0,0.0,0.0,0.0,0.0,0.0,0.0,0.0,0.0,0.9905208349227905,0.0207059346139431,0.008921455591917038,0.13546834886074066,0.0,-0.3740948736667633,0.0,1014.6624755859375,23.0625,-1.4725310802459717,6.179893262449391e-38,-0.0057942504063248634,0.0,3.106029620300036e-25
138,0.4779999852180481,0.0,0.01836789771914482,-0.3790373206138611,0.046702347695827484,-0.09222306311130524,-0.3660662770271301,0.06062807887792587,0.012577186338603497,0.04107315465807915,0.2923294007778168,0.0,0.0,0.0,0.0,0.0,0.0,0.0,0.0,0.0,0.9891234636306763,0.0193999744951725,0.009210974909365177,0.1454828679561615,0.0,-0.3740948736667633,0.0,1014.6624755859375,23.0625,-1.9275847985348963e+34,-5.068364680690865e+36,-9.091352853646175e-16,0.0,1.8006385243856365e+26
138,0.4779999852180481,0.0,-0.0713551938533783,-0.32308056950569153,-0.0420704260468483,-0.1663212776184082,-0.2871429920196533,-0.03356780856847763,0.014540618285536766,0.03814262896776199,0.31153813004493713,0.0,0.0,0.0,0.0,0.0,0.0,0.0,0.0,0.0,0.9877040982246399,0.017710981890559196,0.010139396414160728,0.1549699753522873,0.0,-0.3740948736667633,0.0,1014.6624755859375,23.0625,1.80051828481409e-13,-1.6731051206588745,8.572894444531533e+23,0.0,4.850295991571352e-25
138,0.4779999852180481,0.0,0.0156841017305851,-0.19144971668720245,-0.04062942415475845,-0.04661531373858452,-0.18748365342617035,-0.03501413017511368,0.015036330558359623,0.03382572904229164,0.3301708400249481,0.0,0.0,0.0,0.0,0.0,0.0,0.0,0.0,0.0,0.9862521886825562,0.015446262434124947,0.010194031521677971,0.1641823649406433,0.0,-0.3740948736667633,0.0,1014.6624755859375,23.0625,3.271218533603354e-20,6.31432058195428e-35,-2.2905461908057584e+24,0.0,-1.9563277756395197e+37
138,0.4779999852180481,0.0,-0.12788118422031403,-0.2593180537223816,0.01708122342824936,-0.2089887112379074,-0.19949987530708313,0.020330820232629776,0.011648574844002724,0.028449490666389465,0.34878894686698914,0.0,0.0,0.0,0.0,0.0,0.0,0.0,0.0,0.0,0.9847257137298584,0.012997733429074287,0.00820338074117899,0.17340902984142303,0.0,-0.31174665689468384,0.0,1014.64501953125,23.0625,-1.4725310802459717,6.179893262449391e-38,-0.0057942504063248634,0.0,3.106029620300036e-25
138,0.4779999852180481,0.0,-0.048799823969602585,-0.2517384886741638,-0.07622341066598892,-0.13428427278995514,-0.21966125071048737,-0.07265802472829819,0.017080135643482208,0.026844065636396408,0.3657536506652832,0.0,0.0,0.0,0.0,0.0,0.0,0.0,0.0,0.0,0.9832169413566589,0.011644345708191395,0.010837581939995289,0.1817227005958557,0.0,-0.31174665689468384,0.0,1014.64501953125,23.0625,-1.9275847985348963e+34,-5.068364680690865e+36,-9.091352853646175e-16,0.0,1.8006385243856365e+26
138,0.4779999852180481,0.0,0.005597920157015324,-0.17494839429855347,-0.018899954855442047,-0.05985765531659126,-0.1648104190826416,-0.015797652304172516,0.0166168250143528,0.024906346574425697,0.3829621970653534,0.0,0.0,0.0,0.0,0.0,0.0,0.0,0.0,0.0,0.9816291332244873,0.010643718764185905,0.01052571926265955,0.1901894509792328,0.0,-0.31174665689468384,0.0,1014.64501953125,23.0625,1.80051828481409e-13,-1.6731051206588745,8.572894444531533e+23,0.0,4.850295991571352e-25
138,0.4779999852180481,0.0,-0.03962014243006706,-0.0988624319434166,-0.07441810518503189,-0.0737614557147026,-0.07734997570514679,-0.07387518137693405,0.01592976227402687,0.022570541128516197,0.39954492449760437,0.0,0.0,0.0,0.0,0.0,0.0,0.0,0.0,0.0,0.9800320863723755,0.00947970524430275,0.010045318864285946,0.19833849370479584,0.0,-0.31174665689468384,0.0,1014.64501953125,23.0625,3.271218533603354e-20,6.31432058195428e-35,-2.2905461908057584e+24,0.0,-1.9563277756395197e+37
138,0.4779999852180481,0.0,0.029278215020895004,-0.18323326110839844,-0.05529884248971939,-0.045977551490068436,-0.18047544360160828,-0.05294976010918617,0.01803482510149479,0.017705386504530907,0.41443169116973877,0.0,0.0,0.0,0.0,0.0,0.0,0.0,0.0,0.0,0.9785418510437012,0.006807694677263498,0.010645290836691856,0.2056407332420349,0.0,-0.1669364720582962,0.0,1014.635009765625,23.0625,-1.4725310802459717,6.179893262449391e-38,-0.0057942504063248634,0.0,3.106029620300036e-25
138,0.4779999852180481,0.0,-0.003637515241280198,-0.1284206509590149,-0.010939636267721653,-0.05625627189874649,-0.11555997282266617,-0.010277371853590012,0.01845143549144268,0.014739972539246082,0.4267650246620178,0.0,0.0,0.0,0.0,0.0,0.0,0.0,0.0,0.0,0.9772624969482422,0.005248806439340115,0.01057677622884512,0.21168482303619385,0.0,-0.1669364720582962,0.0,1014.635009765625,23.0625,-1.9275847985348963e+34,-5.068364680690865e+36,-9.091352853646175e-16,0.0,1.8006385243856365e+26
138,0.4779999852180481,0.0,-0.0009125126525759697,-0.047119952738285065,-0.03874591737985611,-0.01998685486614704,-0.04279186204075813,-0.0386224202811718,0.021423541009426117,0.013173285871744156,0.4382482171058655,0.0,0.0,0.0,0.0,0.0,0.0,0.0,0.0,0.0,0.976022481918335,0.004100320395082235,0.011886919848620892,0.2172878384590149,0.0,-0.1669364720582962,0.0,1014.635009765625,23.0625,1.80051828481409e-13,-1.6731051206588745,8.572894444531533e+23,0.0,4.850295991571352e-25
138,0.4779999852180481,0.0,-0.0761830061674118,0.08604680746793747,-0.09403518587350845,-0.029319018125534058,0.10938240587711334,-0.09605228900909424,0.02193688601255417,0.012293949723243713,0.44802749156951904,0.0,0.0,0.0,0.0,0.0,0.0,0.0,0.0,0.0,0.9749475717544556,0.0035564634017646313,0.01205943152308464,0.2220606505870819,0.0,-0.1669364720582962,0.0,1014.635009765625,23.0625,3.271218533603354e-20,6.31432058195428e-35,-2.2905461908057584e+24,0.0,-1.9563277756395197e+37
138,0.4779999852180481,0.0,0.00918287131935358,-0.003352696541696787,-0.06737331300973892,0.00831759162247181,-0.007884489372372627,-0.0671066865324974,0.0228485856205225,0.012540794909000397,0.45429977774620056,0.0,0.0,0.0,0.0,0.0,0.0,0.0,0.0,0.0,0.9742417335510254,0.0035361896734684706,0.01254240795969963,0.22511173784732819,0.0,-0.08346857130527496,0.0,1014.6599731445312,23.0625,-1.4725310802459717,6.179893262449391e-38,-0.0057942504063248634,0.0,3.106029620300036e-25
138,0.4779999852180481,0.0,-0.011787362396717072,-0.016435742378234863,-0.03729823976755142,-0.01680953986942768,-0.009804356843233109,-0.03770303726196289,0.02761581912636757,0.007603597827255726,0.45870253443717957,0.0,0.0,0.0,0.0,0.0,0.0,0.0,0.0,0.0,0.9737222194671631,0.0005628077196888626,0.014310101978480816,0.2272704690694809,0.0,-0.08346857130527496,0.0,1014.6599731445312,23.0625,-1.9275847985348963e+34,-5.068364680690865e+36,-9.091352853646175e-16,0.0,1.8006385243856365e+26
138,0.4779999852180481,0.0,-0.01981474459171295,-0.0010154680348932743,-0.05110744386911392,-0.01665434055030346,0.00764006981626153,-0.05167049542069435,0.029098743572831154,0.007288377732038498,0.46713608503341675,0.0,0.0,0.0,0.0,0.0,0.0,0.0,0.0,0.0,0.9727457165718079,0.0001775137207005173,0.01499712560325861,0.23137161135673523,0.0,-0.08346857130527496,0.0,1014.6599731445312,23.0625,1.80051828481409e-13,-1.6731051206588745,8.572894444531533e+23,0.0,4.850295991571352e-25
138,0.4779999852180481,0.0,0.04398481175303459,0.04235368221998215,-0.053672827780246735,0.05979660525918007,0.017426999285817146,-0.0522477962076664,0.026641612872481346,0.0084883663803339,0.4695046842098236,0.0,0.0,0.0,0.0,0.0,0.0,0.0,0.0,0.0,0.9724862575531006,0.0010290384525433183,0.013942105695605278,0.23252348601818085,0.0,-0.2906286418437958,0.0,1014.6400146484375,23.0625,3.271218533603354e-20,6.31432058195428e-35,-2.2905461908057584e+24,0.0,-1.9563277756395197e+37
138,0.4779999852180481,0.0,-0.01716252975165844,-0.009842674247920513,-0.059318579733371735,-0.01821041665971279,-0.0013074639718979597,-0.05980580300092697,0.0260056983679533,0.005268031265586615,0.47052356600761414,0.0,0.0,0.0,0.0,0.0,0.0,0.0,0.0,0.0,0.9723719358444214,-0.00046962089254520833,0.01325824111700058,0.2330428510904312,0.0,-0.2906286418437958,0.0,1014.6400146484375,23.0625,-1.4725310802459717,6.179893262449391e-38,-0.0057942504063248634,0.0,3.106029620300036e-25
138,0.4779999852180481,0.0,-0.06569606810808182,0.03877061605453491,-0.0724668875336647,-0.03895008936524391,0.06394844502210617,-0.07391813397407532,0.026820439845323563,0.005935162305831909,0.4716370403766632,0.0,0.0,0.0,0.0,0.0,0.0,0.0,0.0,0.0,0.9722370505332947,-0.0002478811366017908,0.013731952756643295,0.23357723653316498,0.0,-0.2906286418437958,0.0,1014.6400146484375,23.0625,-1.9275847985348963e+34,-5.068364680690865e+36,-9.091352853646175e-16,0.0,1.8006385243856365e+26
138,0.4779999852180481,0.0,-0.04880928248167038,0.07455654442310333,-0.015620269812643528,-0.00906355120241642,0.08850245177745819,-0.016433272510766983,0.026940321549773216,0.006360209546983242,0.4729725122451782,0.0,0.0,0.0,0.0,0.0,0.0,0.0,0.0,0.0,0.9720802307128906,-6.450466753449291e-05,0.013839827850461006,0.23422309756278992,0.0,-0.2906286418437958,0.0,1014.6400146484375,23.0625,1.80051828481409e-13,-1.6731051206588745,8.572894444531533e+23,0.0,4.850295991571352e-25
138,0.4779999852180481,0.0,-0.02101416327059269,-0.019727490842342377,-0.03794196993112564,-0.026746109127998352,-0.007940372452139854,-0.038625407963991165,0.0251335296779871,7.78622052166611e-05,0.47483763098716736,0.0,0.0,0.0,0.0,0.0,0.0,0.0,0.0,0.0,0.9718677997589111,-0.0029177337419241667,0.012223128229379654,0.23517465591430664,0.0,-0.12469978630542755,0.0,1014.6799926757812,23.0625,3.271218533603354e-20,6.31432058195428e-35,-2.2905461908057584e+24,0.0,-1.9563277756395197e+37
138,0.4779999852180481,0.0,-0.05150933191180229,0.029360821470618248,-0.015701331198215485,-0.031769126653671265,0.049715783447027206,-0.01675717905163765,0.026087215170264244,0.0044553750194609165,0.478803426027298,0.0,0.0,0.0,0.0,0.0,0.0,0.0,0.0,0.0,0.971397876739502,-0.0009288773871958256,0.013199450448155403,0.23707148432731628,0.0,-0.12469978630542755,0.0,1014.6799926757812,23.0625,-1.4725310802459717,6.179893262449391e-38,-0.0057942504063248634,0.0,3.106029620300036e-25
138,0.4779999852180481,0.0,0.021316086873412132,0.07556883990764618,-0.10470203310251236,0.056141652166843414,0.05635910481214523,-0.10391837358474731,0.021134058013558388,0.006709762383252382,0.4824185073375702,0.0,0.0,0.0,0.0,0.0,0.0,0.0,0.0,0.0,0.9709946513175964,0.0007333856774494052,0.0110622588545084,0.23882697522640228,0.0,-0.12469978630542755,0.0,1014.6799926757812,23.0625,-1.9275847985348963e+34,-5.068364680690865e+36,-9.091352853646175e-16,0.0,1.8006385243856365e+26
138,0.4779999852180481,0.0,-0.021431470289826393,0.09973158687353134,-0.14559464156627655,0.031169094145298004,0.09664744883775711,-0.14591346681118011,0.02444995753467083,0.010661939159035683,0.4858383536338806,0.0,0.0,0.0,0.0,0.0,0.0,0.0,0.0,0.0,0.9705653190612793,0.0022335618268698454,0.013147826306521893,0.24045147001743317,0.0,-0.12469978630542755,0.0,1014.6799926757812,23.0625,1.80051828481409e-13,-1.6731051206588745,8.572894444531533e+23,0.0,4.850295991571352e-25
138,0.4779999852180481,0.0,-0.1320209801197052,-2.0049314498901367,3.8433008193969727,-1.0445606708526611,-1.6845089197158813,3.857348680496216,-0.015776539221405983,-0.0017120508709922433,0.5167533159255981,0.0,0.0,0.0,0.0,0.0,0.0,0.0,0.0,0.0,0.9667731523513794,0.001187948975712061,-0.007845094427466393,0.25549575686454773,0.0,-0.4575604498386383,0.0,1014.6749877929688,23.0625,3.271218533603354e-20,6.31432058195428e-35,-2.2905461908057584e+24,0.0,-1.9563277756395197e+37
138,0.4779999852180481,0.0,0.016515113413333893,-0.20240971446037292,0.08745285123586655,-0.07998092472553253,-0.18806906044483185,0.08439606428146362,-0.08231907337903976,-0.053587183356285095,0.5266870260238647,0.0,0.0,0.0,0.0,0.0,0.0,0.0,0.0,0.0,0.9646438956260681,-0.015137342736124992,-0.04668312892317772,0.2589309513568878,0.0,-0.4575604498386383,0.0,1014.6749877929688,23.0625,-1.4725310802459717,6.179893262449391e-38,-0.0057942504063248634,0.0,3.106029620300036e-25
138,0.4779999852180481,0.0,0.1545325219631195,0.30326950550079346,-0.16762642562389374,0.2684200406074524,0.2055976688861847,-0.17213113605976105,-0.12099012732505798,-0.15323223173618317,0.5529438853263855,0.0,0.0,0.0,0.0,0.0,0.0,0.0,0.0,0.0,0.9587066769599915,-0.057044945657253265,-0.07884649187326431,0.2672117054462433,0.0,-0.4575604498386383,0.0,1014.6749877929688,23.0625,-1.9275847985348963e+34,-5.068364680690865e+36,-9.091352853646175e-16,0.0,1.8006385243856365e+26
138,0.4779999852180481,0.0,0.4149150252342224,-0.009749284014105797,-0.15125851333141327,0.3138919174671173,-0.17187732458114624,-0.2589505612850189,-0.1488618552684784,-0.28565746545791626,0.5868794918060303,0.0,0.0,0.0,0.0,0.0,0.0,0.0,0.0,0.0,0.9479414224624634,-0.11459113657474518,-0.1115172877907753,0.2753748595714569,0.0,-0.4575604498386383,0.0,1014.6749877929688,23.0625,1.80051828481409e-13,-1.6731051206588745,8.572894444531533e+23,0.0,4.850295991571352e-25
138,0.4779999852180481,0.0,-0.43103522062301636,0.7178966999053955,-0.6489315629005432,-0.04986841604113579,1.0146583318710327,-0.30040261149406433,-0.16867005825042725,-0.3733313977718353,0.6123429536819458,0.0,0.0,0.0,0.0,0.0,0.0,0.0,0.0,0.0,0.9383087754249573,-0.15137486159801483,-0.13466057181358337,0.2802148163318634,0.0,-0.41532495617866516,0.0,1014.6699829101562,23.0625,3.271218533603354e-20,6.31432058195428e-35,-2.2905461908057584e+24,0.0,-1.9563277756395197e+37
138,0.4779999852180481,0.0,-0.08134300261735916,0.5970978140830994,-0.10674384981393814,0.26296254992485046,0.5445404052734375,0.09411115199327469,-0.18835537135601044,-0.46258872747421265,0.6337689161300659,0.0,0.0,0.0,0.0,0.0,0.0,0.0,0.0,0.0,0.9275220036506653,-0.18833494186401367,-0.15809263288974762,0.2814803719520569,0.0,-0.41532495617866516,0.0,1014.6699829101562,23.0625,-1.4725310802459717,6.179893262449391e-38,-0.0057942504063248634,0.0,3.106029620300036e-25
138,0.4779999852180481,0.0,-0.038052815943956375,-0.08926524221897125,-0.8449917435646057,-0.26120927929878235,0.4021553695201874,-0.7024642825126648,-0.21231412887573242,-0.5776740312576294,0.6657438278198242,0.0,0.0,0.0,0.0,0.0,0.0,0.0,0.0,0.0,0.9107155203819275,-0.23449711501598358,-0.1885424703359604,0.28293415904045105,0.0,-0.41532495617866516,0.0,1014.6699829101562,23.0625,-1.9275847985348963e+34,-5.068364680690865e+36,-9.091352853646175e-16,0.0,1.8006385243856365e+26
138,0.4779999852180481,0.0,-0.25220179557800293,0.7218925952911377,-0.4804106056690216,0.15223871171474457,0.8891633152961731,0.041558075696229935,-0.2381943315267563,-0.6863478422164917,0.7016076445579529,0.0,0.0,0.0,0.0,0.0,0.0,0.0,0.0,0.0,0.8918101191520691,-0.27529460191726685,-0.21988584101200104,0.2837769389152527,0.0,-0.41532495617866516,0.0,1014.6699829101562,23.0625,1.80051828481409e-13,-1.6731051206588745,8.572894444531533e+23,0.0,4.850295991571352e-25
138,0.4779999852180481,0.0,0.016392596065998077,-0.10210508853197098,-0.5196247696876526,-0.1664023995399475,0.27808448672294617,-0.4191405177116394,-0.21365909278392792,-0.7574613690376282,0.749147355556488,0.0,0.0,0.0,0.0,0.0,0.0,0.0,0.0,0.0,0.8742032051086426,-0.3058941960334778,-0.22670923173427582,0.3013176918029785,0.0,-0.3740948736667633,0.0,1014.6425170898438,23.0625,3.271218533603354e-20,6.31432058195428e-35,-2.2905461908057584e+24,0.0,-1.9563277756395197e+37
138,0.4779999852180481,0.0,0.6201376914978027,-0.9877025485038757,-0.03761390596628189,-0.2286476492881775,-0.8172297477722168,-0.8008591532707214,-0.20142361521720886,-0.782534122467041,0.7553970813751221,0.0,0.0,0.0,0.0,0.0,0.0,0.0,0.0,0.0,0.8690516352653503,-0.31840649247169495,-0.22631825506687164,0.3035430312156677,0.0,-0.3740948736667633,0.0,1014.6425170898438,23.0625,-1.4725310802459717,6.179893262449391e-38,-0.0057942504063248634,0.0,3.106029620300036e-25
138,0.4779999852180481,0.0,-0.1723080277442932,0.535366415977478,-0.262480765581131,0.1615346372127533,0.5808451175689697,0.14738592505455017,-0.22666971385478973,-0.7856365442276001,0.7255163788795471,0.0,0.0,0.0,0.0,0.0,0.0,0.0,0.0,0.0,0.8735296130180359,-0.31850966811180115,-0.23264358937740326,0.28524795174598694,0.0,-0.3740948736667633,0.0,1014.6425170898438,23.0625,-1.9275847985348963e+34,-5.068364680690865e+36,-9.091352853646175e-16,0.0,1.8006385243856365e+26
138,0.4779999852180481,0.0,-0.2100706845521927,0.6271418929100037,-0.5017881989479065,0.10607023537158966,0.8229429125785828,0.027030732482671738,-0.2566714882850647,-0.7588117718696594,0.6967817544937134,0.0,0.0,0.0,0.0,0.0,0.0,0.0,0.0,0.0,0.8820789456367493,-0.30466896295547485,-0.23713886737823486,0.26994529366493225,0.0,-0.3740948736667633,0.0,1014.6425170898438,23.0625,1.80051828481409e-13,-1.6731051206588745,8.572894444531533e+23,0.0,4.850295991571352e-25
138,0.4779999852180481,0.0,0.002902011387050152,0.3035377860069275,-0.14194397628307343,0.14955046772956848,0.29821425676345825,0.03150911629199982,-0.25511255860328674,-0.7730380296707153,0.6734145879745483,0.0,0.0,0.0,0.0,0.0,0.0,0.0,0.0,0.0,0.8829542994499207,-0.31397929787635803,-0.2347404658794403,0.2582588791847229,0.0,-0.14581814408302307,0.0,1014.6174926757812,23.0625,3.271218533603354e-20,6.31432058195428e-35,-2.2905461908057584e+24,0.0,-1.9563277756395197e+37
138,0.4779999852180481,0.0,-0.05096355080604553,0.38700926303863525,-1.560873031616211,-0.20030635595321655,1.3397690057754517,-0.868074357509613,-0.25037017464637756,-0.7814972400665283,0.6464020609855652,0.0,0.0,0.0,0.0,0.0,0.0,0.0,0.0,0.0,0.8849900364875793,-0.32166582345962524,-0.22949199378490448,0.246270552277565,0.0,-0.14581814408302307,0.0,1014.6174926757812,23.0625,-1.4725310802459717,6.179893262449391e-38,-0.0057942504063248634,0.0,3.106029620300036e-25
138,0.4779999852180481,0.0,0.22112146019935608,0.3587210476398468,-1.1340866088867188,0.13986286520957947,0.9349755644798279,-0.7549595236778259,-0.21241000294685364,-0.7536100745201111,0.6155393719673157,0.0,0.0,0.0,0.0,0.0,0.0,0.0,0.0,0.0,0.8929724097251892,-0.3188249468803406,-0.2047739177942276,0.24292103946208954,0.0,-0.14581814408302307,0.0,1014.6174926757812,23.0625,-1.9275847985348963e+34,-5.068364680690865e+36,-9.091352853646175e-16,0.0,1.8006385243856365e+26
138,0.4779999852180481,0.0,-0.29696470499038696,0.49122264981269836,-0.6227160096168518,-0.06296291202306747,0.8381525874137878,-0.10385967046022415,-0.13145919144153595,-0.7007256150245667,0.5765553712844849,0.0,0.0,0.0,0.0,0.0,0.0,0.0,0.0,0.0,0.904951274394989,-0.3108236491680145,-0.1565185785293579,0.24483737349510193,0.0,-0.14581814408302307,0.0,1014.6174926757812,23.0625,1.80051828481409e-13,-1.6731051206588745,8.572894444531533e+23,0.0,4.850295991571352e-25
138,0.4779999852180481,0.0,-0.43070799112319946,0.8343179225921631,0.11607547849416733,0.05407457798719406,0.6612951755523682,0.6744025349617004,-0.020874427631497383,-0.6731851100921631,0.5316060781478882,0.0,0.0,0.0,0.0,0.0,0.0,0.0,0.0,0.0,0.911590039730072,-0.3160676956176758,-0.09625779092311859,0.2446032464504242,0.0,0.062350451946258545,0.0,1014.6849975585938,23.125,3.271218533603354e-20,6.31432058195428e-35,-2.2905461908057584e+24,0.0,-1.9563277756395197e+37
