msg_type,mass,time,ax,ay,az,ax_local,ay_local,az_local,pitch,roll,yaw,vx,vy,vz,vx_local,vy_local,vz_local,x,y,z,qw,qx,qy,qz,apogee,baro_altitude,altitude,baro_pressure,baro_temperature,air_pressure,air_density,air_temperature,drag_coefficient,cd
545.0,0.0,-0.8578762412071228,4.292208671569824,-0.6597605347633362,-4.10888147354126,0.9786620140075684,1.3241132497787476,-0.4331168830394745,-0.1413037180900573,-1.1063976287841797,0.0,0.0,0.0,0.0,0.0,0.0,0.0,0.0,0.0,0.8209280967712402,-0.171274721622467,-0.1461423188447952,-0.5247628688812256,0.0,0.0746830478310585,0.0,1026.1243896484375,24.05135726928711,8.269106846355541e-35,1.2042605876922607,1.508400080616744e-27,0.4899999797344208,-7.397923635792688e-37,
545.0,0.0,-0.90617036819458,4.050578594207764,-0.5544100403785706,-3.904573917388916,0.8609509468078613,1.244377374649048,-0.4174513220787048,-0.127026230096817,-1.104492425918579,0.0,0.0,0.0,0.0,0.0,0.0,0.0,0.0,0.0,0.8242877721786499,-0.1613480448722839,-0.1434820592403412,-0.523374617099762,0.0,0.0,0.0,1026.1536865234375,24.054855346679688,8.269106846355541e-35,1.2042808532714844,1.508400080616744e-27,0.4899999797344208,-7.397923635792688e-37,
545.0,0.0,-0.9490824341773988,3.849943161010742,-0.5758772492408752,-3.782083988189697,0.7770534157752991,1.0706120729446411,-0.400617778301239,-0.1127141714096069,-1.1020562648773191,0.0,0.0,0.0,0.0,0.0,0.0,0.0,0.0,0.0,0.827754020690918,-0.1510398834943771,-0.1403521001338958,-0.5218266248703003,0.0,-0.0746834054589271,0.0,1026.144287109375,24.057186126708984,8.269106846355541e-35,1.2042603492736816,1.508400080616744e-27,0.4899999797344208,-7.397923635792688e-37,
545.0,0.0,-0.9696711897850036,3.633626937866211,-0.3898983299732208,-3.55561900138855,0.6815746426582336,1.0900986194610596,-0.3843111097812652,-0.0989875942468643,-1.09946870803833,0.0,0.0,0.0,0.0,0.0,0.0,0.0,0.0,0.0,0.8310048580169678,-0.1410630494356155,-0.1372667402029037,-0.5202706456184387,0.0,0.0,0.0,1026.13232421875,24.057186126708984,8.269106846355541e-35,1.2042462825775146,1.508400080616744e-27,0.4899999797344208,-7.397923635792688e-37,
545.0,0.0,-1.1097956895828247,3.4419610500335693,-0.3013868629932403,-3.4389121532440186,0.4965692460536957,1.0472114086151123,-0.3675534725189209,-0.0850985646247863,-1.0967551469802856,0.0,0.0,0.0,0.0,0.0,0.0,0.0,0.0,0.0,0.8341856002807617,-0.1308672428131103,-0.1340072005987167,-0.5186921954154968,0.0,0.065349169075489,0.0,1026.1451416015625,24.05252265930176,8.269106846355541e-35,1.2042802572250366,1.508400080616744e-27,0.4899999797344208,-7.397923635792688e-37,
545.0,0.0,-1.1715768575668335,3.2931721210479736,-0.2262211292982101,-3.330003499984741,0.399677038192749,1.0098885297775269,-0.3509706854820251,-0.0724301412701606,-1.0936322212219238,0.0,0.0,0.0,0.0,0.0,0.0,0.0,0.0,0.0,0.8372235298156738,-0.1211728975176811,-0.1304941624403,-0.5170459747314453,0.0,0.0,0.0,1026.162109375,24.058351516723636,8.269106846355541e-35,1.2042765617370603,1.508400080616744e-27,0.4899999797344208,-7.397923635792688e-37,
545.0,0.0,-1.1457258462905884,3.101407527923584,-0.1915321797132492,-3.1616244316101074,0.3654128313064575,0.915707230567932,-0.3334909975528717,-0.0589357390999794,-1.0899406671524048,0.0,0.0,0.0,0.0,0.0,0.0,0.0,0.0,0.0,0.8403770327568054,-0.1108486950397491,-0.1268085390329361,-0.515160322189331,0.0,0.1986404210329055,0.0,1026.120849609375,24.054855346679688,8.269106846355541e-35,1.2042423486709597,1.508400080616744e-27,0.4899999797344208,-7.397923635792688e-37,
545.0,0.0,-1.2541717290878296,2.8473010063171387,-0.1173096075654029,-2.985799551010132,0.176278218626976,0.864635169506073,-0.3168592453002929,-0.0459734946489334,-1.0864635705947876,0.0,0.0,0.0,0.0,0.0,0.0,0.0,0.0,0.0,0.8432202339172363,-0.1009591668844223,-0.1232887133955955,-0.5133987665176392,0.0,0.0,0.0,1026.1231689453125,24.058351516723636,8.269106846355541e-35,1.2042309045791626,1.508400080616744e-27,0.4899999797344208,-7.397923635792688e-37,
545.0,0.0,-0.5038716197013855,1.1358189582824707,0.4375600516796112,-1.0553218126296997,0.0631464645266532,0.7859445214271545,-0.299215018749237,-0.0328453183174133,-1.0816357135772705,0.0,0.0,0.0,0.0,0.0,0.0,0.0,0.0,0.0,0.8463334441184998,-0.0906474962830543,-0.11940199136734,-0.5111138224601746,0.0,-0.2282012552022934,0.0,1026.1556396484375,24.06068420410156,8.269106846355541e-35,1.2042595148086548,1.508400080616744e-27,0.4899999797344208,-7.397923635792688e-37,
545.0,0.0,-1.389683485031128,2.4414172172546387,0.0051488494500517,-2.69655990600586,-0.0832933560013771,0.7831073999404907,-0.2813365757465362,-0.0209118463099002,-1.0771398544311523,0.0,0.0,0.0,0.0,0.0,0.0,0.0,0.0,0.0,0.849161684513092,-0.0807956457138061,-0.1150419786572456,-0.5090710520744324,0.0,0.0,0.0,1026.14111328125,24.058351516723636,8.269106846355541e-35,1.2042518854141235,1.508400080616744e-27,0.4899999797344208,-7.397923635792688e-37,
545.0,0.0,-1.2918604612350464,2.1517703533172607,0.0256242379546165,-2.4147794246673584,-0.1105828359723091,0.6754117608070374,-0.2628729939460754,-0.0088044293224811,-1.0718061923980713,0.0,0.0,0.0,0.0,0.0,0.0,0.0,0.0,0.0,0.8520851135253906,-0.0706727653741836,-0.1104559898376464,-0.5067024230957031,0.0,0.0975064113736152,0.0,1026.134765625,24.06068420410156,8.269106846355541e-35,1.204234957695007,1.508400080616744e-27,0.4899999797344208,-7.397923635792688e-37,
545.0,0.0,-1.370225429534912,2.0306105613708496,0.099151574075222,-2.343029022216797,-0.2184879183769226,0.6878247261047363,-0.2446963340044021,0.002597595565021,-1.0672365427017212,0.0,0.0,0.0,0.0,0.0,0.0,0.0,0.0,0.0,0.8546124696731567,-0.0609678402543067,-0.1057318449020385,-0.5047104954719543,0.0,0.0,0.0,1026.16162109375,24.06068420410156,8.269106846355541e-35,1.2042665481567385,1.508400080616744e-27,0.4899999797344208,-7.397923635792688e-37,
545.0,0.0,-1.4341754913330078,1.7767833471298218,0.044189415872097,-2.1835618019104004,-0.3781350255012512,0.5520469546318054,-0.2256842106580734,0.0140515891835093,-1.061495661735535,0.0,0.0,0.0,0.0,0.0,0.0,0.0,0.0,0.0,0.8573194146156311,-0.0509753003716468,-0.1006435379385948,-0.5022623538970947,0.0,-0.2738387584686279,0.0,1026.1524658203125,24.06184959411621,8.269106846355541e-35,1.204251050949097,1.508400080616744e-27,0.4899999797344208,-7.397923635792688e-37,
545.0,0.0,-1.413350224494934,1.5130375623703003,0.1573228389024734,-1.9374583959579468,-0.4702615737915039,0.5801970362663269,-0.207452118396759,0.0243631489574909,-1.055525779724121,0.0,0.0,0.0,0.0,0.0,0.0,0.0,0.0,0.0,0.8598601222038269,-0.0416721440851688,-0.0955473184585571,-0.4997662007808685,0.0,0.0,0.0,1026.1492919921875,24.06301498413086,8.269106846355541e-35,1.2042425870895386,1.508400080616744e-27,0.4899999797344208,-7.397923635792688e-37,
545.0,0.0,-1.4003113508224487,1.3782986402511597,0.1331929713487625,-1.8345428705215452,-0.5102264881134033,0.5023704171180725,-0.1877574473619461,0.0351445898413658,-1.049316644668579,0.0,0.0,0.0,0.0,0.0,0.0,0.0,0.0,0.0,0.8623724579811096,-0.0318084619939327,-0.0898831188678741,-0.4972068667411804,0.0,0.1436677873134613,0.0,1026.1348876953125,24.059518814086918,8.269106846355541e-35,1.204239845275879,1.508400080616744e-27,0.4899999797344208,-7.397923635792688e-37,
545.0,0.0,-1.5074794292449951,1.1276288032531738,0.1516141444444656,-1.6834172010421753,-0.7124073505401611,0.4749187529087066,-0.1698350757360458,0.044833056628704,-1.042164325714111,0.0,0.0,0.0,0.0,0.0,0.0,0.0,0.0,0.0,0.8648813366889954,-0.02284268848598,-0.0846589133143425,-0.494249552488327,0.0,0.0,0.0,1026.1197509765625,24.06068420410156,8.269106846355541e-35,1.2042174339294434,1.508400080616744e-27,0.4899999797344208,-7.397923635792688e-37,
545.0,0.0,-1.4170206785202026,0.7982568740844727,0.1676435023546219,-1.3689844608306885,-0.7892944812774658,0.4196625351905823,-0.1499280631542205,0.0541267096996307,-1.034955620765686,0.0,0.0,0.0,0.0,0.0,0.0,0.0,0.0,0.0,0.8673104047775269,-0.0135848866775631,-0.0784130841493606,-0.4913563728332519,0.0,0.2318376004695892,0.0,1026.14306640625,24.06418228149414,8.269106846355541e-35,1.204230546951294,1.508400080616744e-27,0.4899999797344208,-7.397923635792688e-37,
545.0,0.0,-1.4188318252563477,0.6853914856910706,0.2325849086046219,-1.2780650854110718,-0.834132194519043,0.4557091295719147,-0.1309217363595962,0.0623128227889537,-1.0280195474624634,0.0,0.0,0.0,0.0,0.0,0.0,0.0,0.0,0.0,0.869491457939148,-0.0050791017711162,-0.0722173228859901,-0.4886051416397095,0.0,0.0,0.0,1026.146484375,24.06184959411621,8.269106846355541e-35,1.2042440176010132,1.508400080616744e-27,0.4899999797344208,-7.397923635792688e-37,
545.0,0.0,-1.3237385749816897,0.3346724510192871,0.2503509223461151,-0.944254755973816,-0.9258811473846436,0.4219706356525421,-0.1106077581644058,0.0693909972906112,-1.0201088190078735,0.0,0.0,0.0,0.0,0.0,0.0,0.0,0.0,0.0,0.871791660785675,0.0032560629770159,-0.0651210993528366,-0.48550945520401,0.0,-0.0809098482131958,0.0,1026.1522216796875,24.06301498413086,8.269106846355541e-35,1.2042460441589355,1.508400080616744e-27,0.4899999797344208,-7.397923635792688e-37,
545.0,0.0,-1.3432769775390625,0.2365110516548156,0.2856654822826385,-0.8828396201133728,-0.9826021790504456,0.4438349306583404,-0.0917729213833808,0.075830154120922,-1.011829853057861,0.0,0.0,0.0,0.0,0.0,0.0,0.0,0.0,0.0,0.874021589756012,0.0109092583879828,-0.0584457144141197,-0.4822269380092621,0.0,0.0,0.0,1026.1424560546875,24.06767845153809,8.269106846355541e-35,1.2042156457901,1.508400080616744e-27,0.4899999797344208,-7.397923635792688e-37,
545.0,0.0,-1.159696102142334,-0.0909266620874404,0.3835277259349823,-0.5182360410690308,-0.9889023303985596,0.5037200450897217,-0.0713265165686607,0.0815121605992317,-1.0030319690704346,0.0,0.0,0.0,0.0,0.0,0.0,0.0,0.0,0.0,0.8762641549110413,0.0185768902301788,-0.0508147850632667,-0.4787747859954834,0.0,-0.1234386637806892,0.0,1026.1573486328125,24.06767845153809,8.269106846355541e-35,1.204233169555664,1.508400080616744e-27,0.4899999797344208,-7.397923635792688e-37,
545.0,0.0,-1.1654316186904907,-0.1341722458600998,0.3515243232250213,-0.5037169456481934,-1.0137397050857544,0.467309296131134,-0.0522091388702392,0.0861755236983299,-0.9942998886108398,0.0,0.0,0.0,0.0,0.0,0.0,0.0,0.0,0.0,0.8783628940582275,0.0254100766032934,-0.0434567667543888,-0.4753271639347076,0.0,0.0,0.0,1026.1168212890625,24.06068420410156,8.269106846355541e-35,1.2042139768600464,1.508400080616744e-27,0.4899999797344208,-7.397923635792688e-37,
545.0,0.0,-1.0865888595581057,-0.3309831321239471,0.2621230781078338,-0.3166725933551788,-1.059555172920227,0.368742972612381,-0.0330857895314693,0.089332640171051,-0.9844592213630676,0.0,0.0,0.0,0.0,0.0,0.0,0.0,0.0,0.0,0.8806271553039551,0.0315350294113159,-0.0356627479195594,-0.4714030027389526,0.0,0.1934607774019241,0.0,1026.134521484375,24.06184959411621,8.269106846355541e-35,1.2042299509048462,1.508400080616744e-27,0.4899999797344208,-7.397923635792688e-37,
545.0,0.0,-1.0037833452224731,-0.5904986262321472,0.2099866420030594,-0.0726483091711998,-1.1381922960281372,0.3155640065670013,-0.0154868410900235,0.0907336622476577,-0.9738162755966188,0.0,0.0,0.0,0.0,0.0,0.0,0.0,0.0,0.0,0.8830084800720215,0.0364599786698818,-0.0280553624033927,-0.4670878052711487,0.0,0.0,0.0,1026.1361083984375,24.070011138916016,8.269106846355541e-35,1.2041988372802734,1.508400080616744e-27,0.4899999797344208,-7.397923635792688e-37,
545.0,0.0,-0.9174840450286864,-0.6438443064689636,0.2787389457225799,0.0050491886213421,-1.0911297798156738,0.3786753714084625,-0.003150416072458,0.0903137177228927,-0.962618350982666,0.0,0.0,0.0,0.0,0.0,0.0,0.0,0.0,0.0,0.8855140209197998,0.0392842590808868,-0.0222925245761871,-0.4624024629592895,0.0,0.0549773387610912,0.0,1026.139404296875,24.06767845153809,8.269106846355541e-35,1.2042120695114136,1.508400080616744e-27,0.4899999797344208,-7.397923635792688e-37,
545.0,0.0,-0.806265115737915,-0.7897084355354309,0.2422179728746414,0.1712636649608612,-1.0891085863113403,0.3418492972850799,0.0108948545530438,0.0886388719081878,-0.9504878520965576,0.0,0.0,0.0,0.0,0.0,0.0,0.0,0.0,0.0,0.8881806135177612,0.0418844036757946,-0.0154325794428586,-0.4573119282722473,0.0,0.0,0.0,1026.124267578125,24.06884384155273,8.269106846355541e-35,1.204189658164978,1.508400080616744e-27,0.4899999797344208,-7.397923635792688e-37,
545.0,0.0,-1.8287492990493772,0.5814096331596375,0.3890456855297088,-1.5585730075836182,-1.099167823791504,0.4430924355983734,0.0270437244325876,0.0860164016485214,-0.9395267963409424,0.0,0.0,0.0,0.0,0.0,0.0,0.0,0.0,0.0,0.890502393245697,0.0444490537047386,-0.0074152373708784,-0.4527317881584167,0.0,0.067426398396492,0.0,1026.142822265625,24.06534767150879,8.269106846355541e-35,1.2042255401611328,1.508400080616744e-27,0.4899999797344208,-7.397923635792688e-37,
545.0,0.0,-0.5505247712135315,-0.9374536871910096,0.2244233638048172,0.4052235186100006,-0.982712745666504,0.3198611140251159,0.037000622600317,0.0807254910469055,-0.921483278274536,0.0,0.0,0.0,0.0,0.0,0.0,0.0,0.0,0.0,0.8945045471191406,0.0443560220301151,-0.0013809776864945,-0.4448410868644714,0.0,0.0,0.0,1026.136474609375,24.06767845153809,8.269106846355541e-35,1.2042086124420166,1.508400080616744e-27,0.4899999797344208,-7.397923635792688e-37,
545.0,0.0,-0.47953000664711,-0.9771151542663574,0.3257302939891815,0.4594290852546692,-0.9508775472640992,0.4189719259738922,0.0440096855163574,0.0752750113606453,-0.9070342779159546,0.0,0.0,0.0,0.0,0.0,0.0,0.0,0.0,0.0,0.8976909518241882,0.0434498861432075,0.003282734658569,-0.4384558796882629,0.0,-0.2282084077596664,0.0,1026.1390380859375,24.070011138916016,8.269106846355541e-35,1.2042021751403809,1.508400080616744e-27,0.4899999797344208,-7.397923635792688e-37,
545.0,0.0,-0.4609902799129486,-0.975498914718628,0.2772073447704315,0.4573601484298706,-0.9470587968826294,0.3671971261501312,0.0482021979987621,0.0704817473888397,-0.8934884071350098,0.0,0.0,0.0,0.0,0.0,0.0,0.0,0.0,0.0,0.9006659984588623,0.0421713478863239,0.0065027438104152,-0.4324018061161041,0.0,0.0,0.0,1026.1361083984375,24.070011138916016,8.269106846355541e-35,1.2041988372802734,1.508400080616744e-27,0.4899999797344208,-7.397923635792688e-37,
545.0,0.0,-0.3723852634429931,-1.0410135984420776,0.2967033088207245,0.5474197864532471,-0.9279372096061708,0.3868527710437774,0.0500712804496288,0.0663203299045562,-0.877787709236145,0.0,0.0,0.0,0.0,0.0,0.0,0.0,0.0,0.0,0.9040846228599548,0.0406339801847934,0.0085641164332628,-0.4253212213516235,0.0,-0.1836044192314148,0.0,1026.148681640625,24.06651306152344,8.269106846355541e-35,1.2042276859283447,1.508400080616744e-27,0.4899999797344208,-7.397923635792688e-37,
545.0,0.0,-0.3782746493816376,-1.0609430074691772,0.3396444022655487,0.5424141883850098,-0.9522598385810852,0.4278013408184051,0.0510276779532432,0.0621950179338455,-0.8633183240890503,0.0,0.0,0.0,0.0,0.0,0.0,0.0,0.0,0.0,0.907202422618866,0.0388993211090564,0.0101557727903127,-0.4187586009502411,0.0,0.0,0.0,1026.1326904296875,24.072341918945312,8.269106846355541e-35,1.2041853666305542,1.508400080616744e-27,0.4899999797344208,-7.397923635792688e-37,
545.0,0.0,-0.3702785968780517,-0.9918516278266908,0.1953973323106765,0.4871595799922943,-0.919549822807312,0.2759342789649963,0.0527182817459106,0.0588484779000282,-0.8471838235855103,0.0,0.0,0.0,0.0,0.0,0.0,0.0,0.0,0.0,0.9105846285820008,0.0376390740275383,0.0119279287755489,-0.4114220142364502,0.0,0.0995837524533271,0.0,1026.1390380859375,24.070011138916016,8.269106846355541e-35,1.2042021751403809,1.508400080616744e-27,0.4899999797344208,-7.397923635792688e-37,
545.0,0.0,-0.2478043586015701,-0.9306014776229858,0.3388814628124237,0.503120481967926,-0.7879043817520142,0.410274863243103,0.051413919776678,0.0563886873424053,-0.8321550488471985,0.0,0.0,0.0,0.0,0.0,0.0,0.0,0.0,0.0,0.9137189388275146,0.0361616946756839,0.0121116926893591,-0.4045427441596985,0.0,0.0,0.0,1026.14208984375,24.070011138916016,8.269106846355541e-35,1.2042057514190674,1.508400080616744e-27,0.4899999797344208,-7.397923635792688e-37,
545.0,0.0,-0.1638838052749633,-0.9511739015579224,0.2662572562694549,0.5659570693969727,-0.7538812160491943,0.3373739719390869,0.0497646890580654,0.0558400675654411,-0.8151735067367554,0.0,0.0,0.0,0.0,0.0,0.0,0.0,0.0,0.0,0.9171589612960817,0.0354798696935176,0.011770375072956,-0.3967537581920624,0.0,-0.022821057587862,0.0,1026.1387939453125,24.071176528930664,8.269106846355541e-35,1.2041971683502195,1.508400080616744e-27,0.4899999797344208,-7.397923635792688e-37,
545.0,0.0,-0.1737656146287918,-0.8892760276794434,0.2207812815904617,0.5052615404129028,-0.7299333214759827,0.2857344448566437,0.0479621887207031,0.0548528097569942,-0.7994370460510254,0.0,0.0,0.0,0.0,0.0,0.0,0.0,0.0,0.0,0.9202995896339417,0.0345819555222988,0.0114115644246339,-0.3895049691200256,0.0,0.0,0.0,1026.130126953125,24.070011138916016,8.269106846355541e-35,1.20419180393219,1.508400080616744e-27,0.4899999797344208,-7.397923635792688e-37,
545.0,0.0,-0.1773817688226699,-0.9282236695289612,0.2403630763292312,0.5174285769462585,-0.7679972052574158,0.3054005205631256,0.0470042154192924,0.0521323569118976,-0.7833354473114014,0.0,0.0,0.0,0.0,0.0,0.0,0.0,0.0,0.0,0.9234668016433716,0.0330504328012466,0.0117667596787214,-0.382059782743454,0.0,-0.197087824344635,0.0,1026.1446533203125,24.072341918945312,8.269106846355541e-35,1.2041994333267212,1.508400080616744e-27,0.4899999797344208,-7.397923635792688e-37,
545.0,0.0,-0.1899013966321945,-0.8706104755401611,0.1947154551744461,0.458691656589508,-0.7465583086013794,0.2533333003520965,0.0454022176563739,0.0499334670603275,-0.7677367329597473,0.0,0.0,0.0,0.0,0.0,0.0,0.0,0.0,0.0,0.9264788627624512,0.0316397100687027,0.0116938333958387,-0.3748207688331604,0.0,0.0,0.0,1026.141845703125,24.071176528930664,8.269106846355541e-35,1.2042007446289062,1.508400080616744e-27,0.4899999797344208,-7.397923635792688e-37,
545.0,0.0,-0.1305938363075256,-0.9048997163772584,0.3511399924755096,0.5064249038696289,-0.7310976982116699,0.4101354479789734,0.0429432056844234,0.0498150363564491,-0.7509647011756897,0.0,0.0,0.0,0.0,0.0,0.0,0.0,0.0,0.0,0.9296278357505798,0.0310354772955179,0.0108370184898376,-0.3670189678668976,0.0,0.0248961467295885,0.0,1026.1412353515625,24.07467269897461,8.269106846355541e-35,1.204185962677002,1.508400080616744e-27,0.4899999797344208,-7.397923635792688e-37,
545.0,0.0,-0.1522634476423263,-0.844037652015686,0.3915586173534393,0.4391502141952514,-0.7063677906990051,0.4439352750778198,0.0390010438859462,0.0487452894449234,-0.7373636960983276,0.0,0.0,0.0,0.0,0.0,0.0,0.0,0.0,0.0,0.9321736693382264,0.0297534298151731,0.0094026820734143,-0.3606524169445038,0.0,0.0,0.0,1026.1358642578125,24.071176528930664,8.269106846355541e-35,1.2041938304901123,1.508400080616744e-27,0.4899999797344208,-7.397923635792688e-37,
545.0,0.0,-0.136649951338768,-0.8255438804626465,0.307622879743576,0.4306907951831817,-0.6950281858444214,0.3553245663642883,0.0374025590717792,0.0446437336504459,-0.7212533354759216,0.0,0.0,0.0,0.0,0.0,0.0,0.0,0.0,0.0,0.9351279735565186,0.0274775028228759,0.0096185868605971,-0.3531001210212707,0.0,-0.1317411512136459,0.0,1026.15673828125,24.071176528930664,8.269106846355541e-35,1.2042182683944702,1.508400080616744e-27,0.4899999797344208,-7.397923635792688e-37,
545.0,0.0,-0.1399258077144622,-0.7996769547462463,0.3451566398143768,0.3982226848602295,-0.683063805103302,0.3911839425563812,0.0370187610387802,0.0448878780007362,-0.7044765949249268,0.0,0.0,0.0,0.0,0.0,0.0,0.0,0.0,0.0,0.9380584359169006,0.0274442601948976,0.0096265273168683,-0.3452419638633728,0.0,0.0,0.0,1026.1141357421875,24.07583999633789,8.269106846355541e-35,1.20414936542511,1.508400080616744e-27,0.4899999797344208,-7.397923635792688e-37,
545.0,0.0,-0.1094302013516426,-0.7443115711212158,0.3271903693675995,0.3756580948829651,-0.6293006539344788,0.3686170578002929,0.0354461073875427,0.0437912978231906,-0.687075138092041,0.0,0.0,0.0,0.0,0.0,0.0,0.0,0.0,0.0,0.9410608410835266,0.0265790559351444,0.009309560060501,-0.3370503485202789,0.0,0.1488596498966217,0.0,1026.1353759765625,24.07350730895996,8.269106846355541e-35,1.20418381690979,1.508400080616744e-27,0.4899999797344208,-7.397923635792688e-37,
545.0,0.0,-0.0863068029284477,-0.7324767112731934,0.3284721076488495,0.3764380812644958,-0.6126701235771179,0.3671286702156067,0.0340584740042686,0.041353590786457,-0.6710242629051208,0.0,0.0,0.0,0.0,0.0,0.0,0.0,0.0,0.0,0.943783164024353,0.0251250695437192,0.0092691797763109,-0.3294657468795776,0.0,0.0,0.0,1026.138427734375,24.07350730895996,8.269106846355541e-35,1.2041873931884766,1.508400080616744e-27,0.4899999797344208,-7.397923635792688e-37,
545.0,0.0,-1.5022635459899902,0.3449546694755554,0.3950519263744354,-1.4136582612991333,-0.6310678124427795,0.3676078915596008,0.0374521575868129,0.0395689569413661,-0.6575483083724976,0.0,0.0,0.0,0.0,0.0,0.0,0.0,0.0,0.0,0.9459640383720398,0.0247650388628244,0.0113321505486965,-0.3231124877929687,0.0,0.0,0.0,1026.1412353515625,24.07467269897461,8.269106846355541e-35,1.204185962677002,1.508400080616744e-27,0.4899999797344208,-7.397923635792688e-37,
545.0,0.0,-0.1116403564810752,-0.6510937809944153,0.3270101249217987,0.2870202362537384,-0.5773696303367615,0.3571789860725403,0.0322562158107757,0.0355382673442363,-0.6373526453971863,0.0,0.0,0.0,0.0,0.0,0.0,0.0,0.0,0.0,0.94928377866745,0.0219234209507703,0.009746853262186,-0.3134904205799103,0.0,0.0,0.0,1026.117431640625,24.07350730895996,8.269106846355541e-35,1.2041627168655396,1.508400080616744e-27,0.4899999797344208,-7.397923635792688e-37,
545.0,0.0,-0.0673791393637657,-0.6663640141487122,0.3700914084911346,0.3216902017593384,-0.5686928629875183,0.3982993066310882,0.0291970521211624,0.0324458219110965,-0.6205098628997803,0.0,0.0,0.0,0.0,0.0,0.0,0.0,0.0,0.0,0.9519526362419128,0.0199021976441144,0.0089471554383635,-0.3054528832435608,0.0,-0.0217839963734149,0.0,1026.14697265625,24.07583999633789,8.269106846355541e-35,1.2041878700256348,1.508400080616744e-27,0.4899999797344208,-7.397923635792688e-37,
545.0,0.0,-0.0215972047299146,-0.6004368662834167,0.279847115278244,0.3152350783348083,-0.4975411295890808,0.3039365112781524,0.0278038922697305,0.0303074698895216,-0.6038162112236023,0.0,0.0,0.0,0.0,0.0,0.0,0.0,0.0,0.0,0.954502284526825,0.0185993816703557,0.0087660551071167,-0.2974795401096344,0.0,0.0,0.0,1026.1497802734375,24.07700538635254,8.269106846355541e-35,1.2041864395141602,1.508400080616744e-27,0.4899999797344208,-7.397923635792688e-37,
545.0,0.0,-0.0553624369204044,-0.6332451701164246,0.3514098823070526,0.2965148985385895,-0.5474618077278137,0.3740437924861908,0.0236906521022319,0.0280694831162691,-0.5875195264816284,0.0,0.0,0.0,0.0,0.0,0.0,0.0,0.0,0.0,0.9569483399391174,0.0168615262955427,0.0072731985710561,-0.2896619737148285,0.0,0.1696088016033172,0.0,1026.1292724609375,24.07467269897461,8.269106846355541e-35,1.204171895980835,1.508400080616744e-27,0.4899999797344208,-7.397923635792688e-37,
545.0,0.0,-0.0073608253151178,-0.5393543243408203,0.2332334071397781,0.2806375622749328,-0.4513812959194183,0.2506924271583557,0.020601637661457,0.0255842916667461,-0.5714184641838074,0.0,0.0,0.0,0.0,0.0,0.0,0.0,0.0,0.0,0.959291398525238,0.0151754263788461,0.006277295295149,-0.2819252014160156,0.0,0.0,0.0,1026.1407470703125,24.07700538635254,8.269106846355541e-35,1.2041759490966797,1.508400080616744e-27,0.4899999797344208,-7.397923635792688e-37,
545.0,0.0,1.4568614959716797,-1.4690871238708496,0.2738742530345917,2.004310369491577,-0.4844949543476105,0.3218687176704407,0.0177570488303899,0.0252989809960126,-0.5492355823516846,0.0,0.0,0.0,0.0,0.0,0.0,0.0,0.0,0.0,0.9623793959617616,0.0145820993930101,0.0051150419749319,-0.2712536156177521,0.0,-0.033195424824953,0.0,1026.156005859375,24.07583999633789,8.269106846355541e-35,1.2041984796524048,1.508400080616744e-27,0.4899999797344208,-7.397923635792688e-37,
545.0,0.0,-0.0777722895145416,-0.5487408638000488,0.2848844230175018,0.2089068293571472,-0.505186915397644,0.299101322889328,0.0154735576361417,0.0215442553162574,-0.5359316468238831,0.0,0.0,0.0,0.0,0.0,0.0,0.0,0.0,0.0,0.9642004370689392,0.0124354688450694,0.0046082017943263,-0.2648263573646545,0.0,0.0,0.0,1026.143310546875,24.07933616638184,8.269106846355541e-35,1.204169511795044,1.508400080616744e-27,0.4899999797344208,-7.397923635792688e-37,
545.0,0.0,-0.0410875864326953,-0.4712390899658203,0.3446206748485565,0.1925714164972305,-0.4225813746452331,0.3561645150184631,0.0145381018519401,0.0204381570219993,-0.5179309248924255,0.0,0.0,0.0,0.0,0.0,0.0,0.0,0.0,0.0,0.966556191444397,0.0117392092943191,0.0044094864279031,-0.2561312317848205,0.0,-0.0217841658741235,0.0,1026.1346435546875,24.078170776367188,8.269106846355541e-35,1.2041640281677246,1.508400080616744e-27,0.4899999797344208,-7.397923635792688e-37,
545.0,0.0,0.00160213035997,-0.3996447324752807,0.3824815452098846,0.1877807676792144,-0.3425312936306,0.3916836977005005,0.0140487076714634,0.0188598949462175,-0.5004823207855225,0.0,0.0,0.0,0.0,0.0,0.0,0.0,0.0,0.0,0.9687652587890624,0.010875241830945,0.0044701271690428,-0.2476836144924163,0.0,0.0,0.0,1026.123046875,24.07583999633789,8.269106846355541e-35,1.2041598558425903,1.508400080616744e-27,0.4899999797344208,-7.397923635792688e-37,
545.0,0.0,-0.0698132142424583,-0.3982716798782348,0.3197822272777557,0.1179488226771354,-0.3816456794738769,0.3258605003356933,0.0127814682200551,0.01185495685786,-0.4801489114761352,0.0,0.0,0.0,0.0,0.0,0.0,0.0,0.0,0.0,0.9712702631950378,0.0072768297977745,0.0047979615628719,-0.2378016859292984,0.0,-0.1307063847780227,0.0,1026.1375732421875,24.078170776367188,8.269106846355541e-35,1.2041674852371216,1.508400080616744e-27,0.4899999797344208,-7.397923635792688e-37,
545.0,0.0,-0.0332170017063617,-0.3633156418800354,0.3202504813671112,0.128832072019577,-0.3361258804798126,0.3256986141204834,0.0116933612152934,0.0116045549511909,-0.4631106555461883,0.0,0.0,0.0,0.0,0.0,0.0,0.0,0.0,0.0,0.9732655882835388,0.0069890050217509,0.0043589952401816,-0.2295158505439758,0.0,0.0,0.0,1026.152099609375,24.080501556396484,8.269106846355541e-35,1.2041749954223633,1.508400080616744e-27,0.4899999797344208,-7.397923635792688e-37,
545.0,0.0,-0.040055762976408,-0.3991324603557586,0.3562402427196502,0.1318183243274688,-0.3740717470645904,0.3612583577632904,0.0105318538844585,0.0096142822876572,-0.4447982907295227,0.0,0.0,0.0,0.0,0.0,0.0,0.0,0.0,0.0,0.975336492061615,0.0058501362800598,0.0040758829563856,-0.2205884456634521,0.0,-0.2230289131402969,0.0,1026.1546630859375,24.08283424377441,8.269106846355541e-35,1.2041685581207275,1.508400080616744e-27,0.4899999797344208,-7.397923635792688e-37,
545.0,0.0,-0.0371402613818645,-0.3484974801540375,0.4015836417675018,0.1062691733241081,-0.3313168883323669,0.4037704169750213,0.008655278943479,0.0037800222635269,-0.4246798455715179,0.0,0.0,0.0,0.0,0.0,0.0,0.0,0.0,0.0,0.9775237441062928,0.0027595763094723,0.0038321292959153,-0.2107526063919067,0.0,0.0,0.0,1026.148681640625,24.08283424377441,8.269106846355541e-35,1.2041616439819336,1.508400080616744e-27,0.4899999797344208,-7.397923635792688e-37,
545.0,0.0,-0.0167692564427852,-0.2280355244874954,0.337743729352951,0.0721870139241218,-0.2148011624813079,0.3391148746013641,0.008106866851449,0.0036102230660617,-0.4072698056697845,0.0,0.0,0.0,0.0,0.0,0.0,0.0,0.0,0.0,0.9793226718902588,0.0025875188875943,0.0036046372260898,-0.2022347450256347,0.0,0.0653550699353218,0.0,1026.140380859375,24.07933616638184,8.269106846355541e-35,1.204166054725647,1.508400080616744e-27,0.4899999797344208,-7.397923635792688e-37,
545.0,0.0,-0.0339835211634635,-0.2482412457466125,0.2322454005479812,0.0626954957842826,-0.2434006035327911,0.2313870191574096,0.0064040767028927,-0.0052005355246365,-0.3951076567173004,0.0,0.0,0.0,0.0,0.0,0.0,0.0,0.0,0.0,0.9805387258529664,-0.0019211969338357,0.0036501076538115,-0.1962606459856033,0.0,0.0,0.0,1026.1343994140625,24.07933616638184,8.269106846355541e-35,1.2041590213775637,1.508400080616744e-27,0.4899999797344208,-7.397923635792688e-37,
545.0,0.0,0.0090200863778591,-0.2052555382251739,0.3169555366039276,0.08323635160923,-0.1873357743024826,0.3172484934329986,0.0033695599995553,7.137915963539854e-05,-0.3789078891277313,0.0,0.0,0.0,0.0,0.0,0.0,0.0,0.0,0.0,0.9821016192436218,0.0003523342020343,0.0016479197656735,-0.1883216202259063,0.0,0.072616770863533,0.0,1026.1455078125,24.083999633789062,8.269106846355541e-35,1.2041531801223757,1.508400080616744e-27,0.4899999797344208,-7.397923635792688e-37,
545.0,0.0,-0.0556531250476837,-0.2665755152702331,0.3326348960399627,0.0425651967525482,-0.270203560590744,0.3316334784030914,0.0014148952905088,-0.0039290729910135,-0.364513635635376,0.0,0.0,0.0,0.0,0.0,0.0,0.0,0.0,0.0,0.9834309816360474,-0.0018037632107734,0.0010518012568354,-0.1812469214200973,0.0,0.0,0.0,1026.15771484375,24.08283424377441,8.269106846355541e-35,1.204172134399414,1.508400080616744e-27,0.4899999797344208,-7.397923635792688e-37,
545.0,0.0,0.0082788364961743,-0.2097569704055786,0.260132759809494,0.078630194067955,-0.1949830800294876,0.2598702609539032,0.0036322982050478,-0.0028136926703155,-0.349352091550827,0.0,0.0,0.0,0.0,0.0,0.0,0.0,0.0,0.0,0.984776496887207,-0.0010698017431423,0.0020330105908215,-0.1737854033708572,0.0,-0.1504153609275818,0.0,1026.14013671875,24.080501556396484,8.269106846355541e-35,1.2041610479354858,1.508400080616744e-27,0.4899999797344208,-7.397923635792688e-37,
545.0,0.0,-0.005226835142821,-0.2225515991449356,0.2895021140575409,0.0680990815162658,-0.2131735831499099,0.2885919213294983,0.0010901236673817,-0.0046218046918511,-0.3358659148216247,0.0,0.0,0.0,0.0,0.0,0.0,0.0,0.0,0.0,0.9859256148338318,-0.0021872771903872,0.0009236481273546,-0.1671423316001892,0.0,0.0,0.0,1026.11962890625,24.078170776367188,8.269106846355541e-35,1.204146385192871,1.508400080616744e-27,0.4899999797344208,-7.397923635792688e-37,
545.0,0.0,0.0138188945129513,-0.1647300571203231,0.2615375220775604,0.0648277625441551,-0.1543709933757782,0.2601809501647949,0.0007559757214039,-0.0091618774458765,-0.3205927312374115,0.0,0.0,0.0,0.0,0.0,0.0,0.0,0.0,0.0,0.987165629863739,-0.0044618449173867,0.0011043013073503,-0.1596067249774933,0.0,-0.0269712898880243,0.0,1026.1224365234375,24.07933616638184,8.269106846355541e-35,1.2041449546813965,1.508400080616744e-27,0.4899999797344208,-7.397923635792688e-37,
545.0,0.0,0.0224732402712106,-0.1071951389312744,0.3479699790477752,0.0543349385261535,-0.0996630489826202,0.3466867804527282,-0.0010490503627806,-0.0125505672767758,-0.3086097538471222,0.0,0.0,0.0,0.0,0.0,0.0,0.0,0.0,0.0,0.9880943894386292,-0.0062812720425426,0.0004461734788492,-0.1536928415298462,0.0,0.0,0.0,1026.124755859375,24.08283424377441,8.269106846355541e-35,1.2041335105895996,1.508400080616744e-27,0.4899999797344208,-7.397923635792688e-37,
545.0,0.0,0.0071886852383613,-0.0788719058036804,0.3470401465892792,0.030417950823903,-0.0764480903744697,0.3463202118873596,-0.001292354427278,-0.0090557662770152,-0.2971865832805633,0.0,0.0,0.0,0.0,0.0,0.0,0.0,0.0,0.0,0.9889654517173768,-0.0045736166648566,3.128205207758583e-05,-0.1480478048324585,0.0,0.0684677585959434,0.0,1026.1246337890625,24.083999633789062,8.269106846355541e-35,1.204128623008728,1.508400080616744e-27,0.4899999797344208,-7.397923635792688e-37,
545.0,0.0,0.0172684919089078,-0.0956876277923584,0.2761697471141815,0.044386588037014,-0.0903191193938255,0.2749452888965606,-0.0020652236416935,-0.0127718085423111,-0.2889304161071777,0.0,0.0,0.0,0.0,0.0,0.0,0.0,0.0,0.0,0.9895572066307068,-0.0064679654315114,-0.0001025136662065,-0.1439661383628845,0.0,0.0,0.0,1026.11279296875,24.08283424377441,8.269106846355541e-35,1.2041194438934326,1.508400080616744e-27,0.4899999797344208,-7.397923635792688e-37,
545.0,0.0,0.013656566850841,-0.0698485150933265,0.2617578208446502,0.0339435935020446,-0.0666831955313682,0.2607344090938568,-0.0053316475823521,-0.0129865827038884,-0.281910628080368,0.0,0.0,0.0,0.0,0.0,0.0,0.0,0.0,0.0,0.99005126953125,-0.0068033095449209,-0.00172711443156,-0.1405021101236343,0.0,-0.2012464702129364,0.0,1026.1397705078125,24.08283424377441,8.269106846355541e-35,1.2041511535644531,1.508400080616744e-27,0.4899999797344208,-7.397923635792688e-37,
545.0,0.0,-0.0566086061298847,-0.1331032067537307,0.3206615149974823,-0.017684206366539,-0.1484478712081909,0.3184230327606201,-0.0025395881384611,-0.0156333725899457,-0.2738779187202453,0.0,0.0,0.0,0.0,0.0,0.0,0.0,0.0,0.0,0.9906019568443298,-0.0079167298972606,-0.0001908229460241,-0.1365163475275039,0.0,0.0,0.0,1026.1419677734375,24.08749771118164,8.269106846355541e-35,1.204134821891785,1.508400080616744e-27,0.4899999797344208,-7.397923635792688e-37,
545.0,0.0,-0.0441182106733322,-0.0902770385146141,0.2851257026195526,-0.0169823467731475,-0.1043505743145942,0.2832207679748535,-0.0039343698881566,-0.0194051600992679,-0.2733975350856781,0.0,0.0,0.0,0.0,0.0,0.0,0.0,0.0,0.0,0.9906158447265624,-0.0098799197003245,-0.0006265743286348,-0.136285051703453,0.0,0.1089244857430458,0.0,1026.1297607421875,24.08866310119629,8.269106846355541e-35,1.2041157484054563,1.508400080616744e-27,0.4899999797344208,-7.397923635792688e-37,
545.0,0.0,0.0301725212484598,-0.0855702608823776,0.2545947730541229,0.0529796816408634,-0.0774011239409446,0.2534800171852112,-0.0019207120640203,-0.0133581338450312,-0.2779167890548706,0.0,0.0,0.0,0.0,0.0,0.0,0.0,0.0,0.0,0.9903331398963928,-0.0067476234398782,-2.596465128590353e-05,-0.1385142207145691,0.0,0.0,0.0,1026.136962890625,24.08166885375977,8.269106846355541e-35,1.2041525840759275,1.508400080616744e-27,0.4899999797344208,-7.397923635792688e-37,
545.0,0.0,0.0108779808506369,-0.0426389798521995,0.3345985114574432,0.0240141004323959,-0.0447300374507904,0.3336364030838012,-0.0063459165394306,-0.0196295510977506,-0.2708999216556549,0.0,0.0,0.0,0.0,0.0,0.0,0.0,0.0,0.0,0.99077969789505,-0.0101530784741044,-0.0018184361979365,-0.1350592821836471,0.0,-0.2531184554100036,0.0,1026.1419677734375,24.08749771118164,8.269106846355541e-35,1.204134821891785,1.508400080616744e-27,0.4899999797344208,-7.397923635792688e-37,
545.0,0.0,-0.0471599325537681,-0.1024105921387672,0.306092232465744,-0.0178772564977407,-0.1163298487663269,0.304220974445343,-0.0018260739743709,-0.0167144946753978,-0.2672932147979736,0.0,0.0,0.0,0.0,0.0,0.0,0.0,0.0,0.0,0.9910423159599304,-0.0084042446687817,0.0002087104076053,-0.1332513988018036,0.0,0.0,0.0,1026.1357421875,24.08866310119629,8.269106846355541e-35,1.20412278175354,1.508400080616744e-27,0.4899999797344208,-7.397923635792688e-37,
545.0,0.0,0.003859574208036,-0.0476058386266231,0.3700589835643768,0.0173317119479179,-0.051691249012947,0.3691208958625793,-0.0033622889313846,-0.0181847065687179,-0.2626516222953796,0.0,0.0,0.0,0.0,0.0,0.0,0.0,0.0,0.0,0.9913407564163208,-0.0092340214177966,-0.0004759970470331,-0.1309576779603958,0.0,0.0529064536094665,0.0,1026.126953125,24.08749771118164,8.269106846355541e-35,1.2041171789169312,1.508400080616744e-27,0.4899999797344208,-7.397923635792688e-37,
545.0,0.0,0.0070043369196355,-0.0346711128950119,0.3711671531200409,0.0180610865354537,-0.0402046553790569,0.370231419801712,-0.0062207509763538,-0.0230255797505378,-0.2622218728065491,0.0,0.0,0.0,0.0,0.0,0.0,0.0,0.0,0.0,0.9913380146026612,-0.0118202352896332,-0.0015783983981236,-0.1307612955570221,0.0,0.0,0.0,1026.1419677734375,24.08749771118164,8.269106846355541e-35,1.204134821891785,1.508400080616744e-27,0.4899999797344208,-7.397923635792688e-37,
545.0,0.0,0.0036873898934572,-0.0017633391544222,0.3550901114940643,0.0036266653332859,-0.0077551789581775,0.3550076186656952,0.0011036796495318,-0.0197398327291011,-0.2624340355396271,0.0,0.0,0.0,0.0,0.0,0.0,0.0,0.0,0.0,0.9913517832756042,-0.0097126699984073,0.0018384327413514,-0.1308284848928451,0.0,-0.1172231808304786,0.0,1026.1319580078125,24.09332656860352,8.269106846355541e-35,1.204099416732788,1.508400080616744e-27,0.4899999797344208,-7.397923635792688e-37,
545.0,0.0,0.0044680875726044,-0.0084655545651912,0.3263845145702362,0.0067510949447751,-0.0132857589051127,0.3261820673942566,-0.0007768762297928,-0.0191747937351465,-0.2604754269123077,0.0,0.0,0.0,0.0,0.0,0.0,0.0,0.0,0.0,0.991481065750122,-0.0095564629882574,0.0008599575958214,-0.1298670619726181,0.0,0.0,0.0,1026.1180419921875,24.08749771118164,8.269106846355541e-35,1.204106688499451,1.508400080616744e-27,0.4899999797344208,-7.397923635792688e-37,
545.0,0.0,0.0908388420939445,-0.0496333613991737,0.3265618979930877,0.100722536444664,-0.0307447202503681,0.3259840309619903,-0.0007101793889887,-0.0181244760751724,-0.2578150629997253,0.0,0.0,0.0,0.0,0.0,0.0,0.0,0.0,0.0,0.991657555103302,-0.0090325316414237,0.0008128065965138,-0.1285481750965118,0.0,0.0404588058590889,0.0,1026.130126953125,24.08633041381836,8.269106846355541e-35,1.2041256427764893,1.508400080616744e-27,0.4899999797344208,-7.397923635792688e-37,
545.0,0.0,0.0017066986765712,-0.0335715897381305,0.3270950019359588,0.0097356056794524,-0.0386893227696418,0.3263857662677765,0.0009944440098479,-0.02024632319808,-0.2531656622886657,0.0,0.0,0.0,0.0,0.0,0.0,0.0,0.0,0.0,0.9919446706771852,-0.0099791828542947,0.0017711921827867,-0.1262330561876297,0.0,0.0,0.0,1026.1707763671875,24.09332656860352,8.269106846355541e-35,1.204145073890686,1.508400080616744e-27,0.4899999797344208,-7.397923635792688e-37,
545.0,0.0,-0.0014000955270603,-0.055456131696701,0.3049030005931854,0.0130492774769663,-0.0587314032018184,0.3040097951889038,-0.0023332484997808,-0.0152653967961668,-0.2495285123586654,0.0,0.0,0.0,0.0,0.0,0.0,0.0,0.0,0.0,0.9921923279762268,-0.0077184317633509,-0.000207721357583,-0.1244454383850097,0.0,0.068468302488327,0.0,1026.1212158203125,24.08633041381836,8.269106846355541e-35,1.2041151523590088,1.508400080616744e-27,0.4899999797344208,-7.397923635792688e-37,
545.0,0.0,-0.0283267088234424,-0.0258581433445215,0.3197364509105682,-0.0204008482396602,-0.0382960177958011,0.319089263677597,-0.0020838468335568,-0.0195531491190195,-0.249418020248413,0.0,0.0,0.0,0.0,0.0,0.0,0.0,0.0,0.0,0.992180585861206,-0.0098300445824861,0.000182257630513,-0.1243895888328552,0.0,0.0,0.0,1026.1260986328125,24.092159271240234,8.269106846355541e-35,1.2040972709655762,1.508400080616744e-27,0.4899999797344208,-7.397923635792688e-37,
545.0,0.0,0.0018041083822026,-0.0130187207832932,0.3275327384471893,0.0056825340725481,-0.0199258271604776,0.3271381855010986,-0.0023524919524788,-0.0236302893608808,-0.2453333139419555,0.0,0.0,0.0,0.0,0.0,0.0,0.0,0.0,0.0,0.9924102425575256,-0.0118699520826339,0.0002783214440569,-0.1223639324307441,0.0,0.1006285920739173,0.0,1026.1201171875,24.092159271240234,8.269106846355541e-35,1.2040903568267822,1.508400080616744e-27,0.4899999797344208,-7.397923635792688e-37,
545.0,0.0,-0.0198260527104139,-0.0571873411536216,0.3194675147533417,-0.0051459986716508,-0.0653912797570228,0.3184629678726196,-0.0012588714016601,-0.0160516500473022,-0.2419247776269912,0.0,0.0,0.0,0.0,0.0,0.0,0.0,0.0,0.0,0.9926559925079346,-0.0080430097877979,0.0003436236875131,-0.1206682100892067,0.0,0.0,0.0,1026.137451171875,24.09565734863281,8.269106846355541e-35,1.204096436500549,1.508400080616744e-27,0.4899999797344208,-7.397923635792688e-37,
545.0,0.0,0.0043593738228082,-0.0190284810960292,0.3769035041332245,0.00793416518718,-0.0247636195272207,0.3765088021755218,0.0022769039496779,-0.0194689538329839,-0.2420005053281784,0.0,0.0,0.0,0.0,0.0,0.0,0.0,0.0,0.0,0.992638111114502,-0.0095256939530372,0.0023050568997859,-0.1206879243254661,0.0,0.2017760574817657,0.0,1026.111328125,24.090993881225582,8.269106846355541e-35,1.2040847539901731,1.508400080616744e-27,0.4899999797344208,-7.397923635792688e-37,
545.0,0.0,0.0109280813485383,-0.0705651938915252,0.4269656836986542,0.0298665910959243,-0.0715708285570144,0.4258885383605957,-0.0057481005787849,-0.0132206240668892,-0.2403738796710968,0.0,0.0,0.0,0.0,0.0,0.0,0.0,0.0,0.0,0.99275404214859,-0.0069071105681359,-0.002060713712126,-0.1199130490422248,0.0,0.0,0.0,1026.1109619140625,24.09332656860352,8.269106846355541e-35,1.2040748596191406,1.508400080616744e-27,0.4899999797344208,-7.397923635792688e-37,
545.0,0.0,0.0044646472670137,-0.0714371427893638,0.2844428718090057,0.0223796851933002,-0.0735913217067718,0.2830424010753631,-0.0050463755615055,-0.0181475356221199,-0.234549343585968,0.0,0.0,0.0,0.0,0.0,0.0,0.0,0.0,0.0,0.9930803775787354,-0.0093064699321985,-0.0014440976083278,-0.1170230954885482,0.0,-0.0726179853081703,0.0,1026.1285400390625,24.09565734863281,8.269106846355541e-35,1.2040860652923584,1.508400080616744e-27,0.4899999797344208,-7.397923635792688e-37,
545.0,0.0,0.0245815608650445,-0.0292498171329498,0.3852681815624237,0.0321624986827373,-0.0317835696041584,0.3845052719116211,-0.0040470995008945,-0.0231522992253303,-0.230054423213005,0.0,0.0,0.0,0.0,0.0,0.0,0.0,0.0,0.0,0.9933162927627563,-0.0117315575480461,-0.000681449775584,-0.1147885993123054,0.0,0.0,0.0,1026.1490478515625,24.09798812866211,8.269106846355541e-35,1.2041006088256836,1.508400080616744e-27,0.4899999797344208,-7.397923635792688e-37,
545.0,0.0,0.0098396837711334,-0.0516895465552806,0.3057193458080292,0.021657645702362,-0.0540749244391918,0.3046936094760895,-0.0014539425028488,-0.0194078292697668,-0.2268562316894531,0.0,0.0,0.0,0.0,0.0,0.0,0.0,0.0,0.0,0.9935219287872314,-0.0097236409783363,0.0003760472463909,-0.1131862178444862,0.0,-0.2126647382974624,0.0,1026.148193359375,24.102651596069336,8.269106846355541e-35,1.2040807008743286,1.508400080616744e-27,0.4899999797344208,-7.397923635792688e-37,
545.0,0.0,0.0168115980923175,-0.074408046901226,0.342555969953537,0.0330032147467136,-0.0760713592171669,0.3410067856311798,0.0004381854378152,-0.0215608440339565,-0.2273980975151062,0.0,0.0,0.0,0.0,0.0,0.0,0.0,0.0,0.0,0.9934815168380736,-0.0106857055798172,0.0014407219132408,-0.1134448125958442,0.0,0.0,0.0,1026.1405029296875,24.09565734863281,8.269106846355541e-35,1.2041000127792358,1.508400080616744e-27,0.4899999797344208,-7.397923635792688e-37,
545.0,0.0,0.0460759215056896,0.0021684777457267,0.3058576285839081,0.046926312148571,0.0057505406439304,0.3056792616844177,-0.008404990658164,-0.0225872714072465,-0.2308432161808014,0.0,0.0,0.0,0.0,0.0,0.0,0.0,0.0,0.0,0.9932644963264464,-0.0117020588368177,-0.002873680088669,-0.115203782916069,0.0,0.1291590183973312,0.0,1026.1339111328125,24.09915542602539,8.269106846355541e-35,1.204078197479248,1.508400080616744e-27,0.4899999797344208,-7.397923635792688e-37,
545.0,0.0,-0.0284072495996952,0.0037716440856456,0.2477073222398758,-0.0283398553729057,-0.0081150345504283,0.2476087361574173,-0.0006950774695724,-0.0211698338389396,-0.2323813140392303,0.0,0.0,0.0,0.0,0.0,0.0,0.0,0.0,0.0,0.9931972026824952,-0.0105535946786403,0.0008818974602036,-0.1159260720014572,0.0,0.0,0.0,1026.1368408203125,24.09915542602539,8.269106846355541e-35,1.2040815353393557,1.508400080616744e-27,0.4899999797344208,-7.397923635792688e-37,
545.0,0.0,0.0624152049422264,0.0337749794125556,0.3186645209789276,0.0538641884922981,0.0406971126794815,0.3194121122360229,-0.0032968383748084,-0.0210231989622116,-0.2354447990655899,0.0,0.0,0.0,0.0,0.0,0.0,0.0,0.0,0.0,0.9930163025856018,-0.010632193647325,-0.0004023608344141,-0.1174607351422309,0.0,-0.0238607171922922,0.0,1026.127685546875,24.10032081604004,8.269106846355541e-35,1.2040661573410034,1.508400080616744e-27,0.4899999797344208,-7.397923635792688e-37,
545.0,0.0,0.0592827573418617,-0.0227993205189704,0.3050737082958221,0.063890054821968,-0.0140983061864972,0.3046668171882629,-0.0030059735290706,-0.0190918464213609,-0.2364226877689361,0.0,0.0,0.0,0.0,0.0,0.0,0.0,0.0,0.0,0.9929689168930054,-0.0096563585102558,-0.0003666483971755,-0.1179444715380668,0.0,0.0,0.0,1026.1405029296875,24.09565734863281,8.269106846355541e-35,1.2041000127792358,1.508400080616744e-27,0.4899999797344208,-7.397923635792688e-37,
545.0,0.0,-0.0068697310052812,-0.034099243581295,0.2836084067821502,0.0029626442119479,-0.0396410934627056,0.282952606678009,-0.0062965201213955,-0.0172159485518932,-0.2326436191797256,0.0,0.0,0.0,0.0,0.0,0.0,0.0,0.0,0.0,0.9931933879852296,-0.0089149950072169,-0.002127859275788,-0.1160812377929687,0.0,0.1016680002212524,0.0,1026.1279296875,24.09915542602539,8.269106846355541e-35,1.2040711641311646,1.508400080616744e-27,0.4899999797344208,-7.397923635792688e-37,
545.0,0.0,0.0358973480761051,-0.0919227972626686,0.3359918296337127,0.0571449324488639,-0.088602989912033,0.3339323103427887,-0.003694956889376,-0.0217474494129419,-0.2299501746892929,0.0,0.0,0.0,0.0,0.0,0.0,0.0,0.0,0.0,0.9933306574821472,-0.0110135897994041,-0.0005877562798559,-0.1147344261407852,0.0,0.0,0.0,1026.12744140625,24.101486206054688,8.269106846355541e-35,1.2040611505508425,1.508400080616744e-27,0.4899999797344208,-7.397923635792688e-37,
545.0,0.0,-0.0220202393829822,0.0321723408997058,0.2325906306505203,-0.0280423611402511,0.0214100014418363,0.2331794500350952,-0.0035976285580545,-0.0205194875597953,-0.2339860796928405,0.0,0.0,0.0,0.0,0.0,0.0,0.0,0.0,0.0,0.9931039214134216,-0.0103993285447359,-0.0005888762534596,-0.1167378425598144,0.0,0.2173450142145156,0.0,1026.113525390625,24.09565734863281,8.269106846355541e-35,1.2040684223175049,1.508400080616744e-27,0.4899999797344208,-7.397923635792688e-37,
545.0,0.0,-0.0129949152469635,0.0222982838749885,0.4193925559520721,-0.0162952821701765,0.0101415775716304,0.4197438359260559,-0.0038641905412077,-0.0201016329228878,-0.2396424859762191,0.0,0.0,0.0,0.0,0.0,0.0,0.0,0.0,0.0,0.992771565914154,-0.010209466330707,-0.0007167578442022,-0.1195472553372383,0.0,0.0,0.0,1026.134033203125,24.09798812866211,8.269106846355541e-35,1.20408296585083,1.508400080616744e-27,0.4899999797344208,-7.397923635792688e-37,
545.0,0.0,-0.0049376161769032,-0.0291520077735185,0.3913793265819549,0.002676629461348,-0.0368998833000659,0.3907436430454254,-0.0011930608889088,-0.0189623776823282,-0.2425874024629593,0.0,0.0,0.0,0.0,0.0,0.0,0.0,0.0,0.0,0.9926032423973083,-0.0094835218042135,0.0005550447967834,-0.1209961473941803,0.0,0.1037424579262733,0.0,1026.094970703125,24.09915542602539,8.269106846355541e-35,1.2040324211120603,1.508400080616744e-27,0.4899999797344208,-7.397923635792688e-37,
545.0,0.0,0.021406726911664,0.0377389304339885,0.4268226325511932,0.0125988572835922,0.0316580384969711,0.4276633858680725,-0.002379254437983,-0.0237667299807071,-0.2457218617200851,0.0,0.0,0.0,0.0,0.0,0.0,0.0,0.0,0.0,0.9923853874206544,-0.0119392350316047,0.0002757083566393,-0.1225568428635597,0.0,0.0,0.0,1026.1353759765625,24.10731506347656,8.269106846355541e-35,1.2040468454360962,1.508400080616744e-27,0.4899999797344208,-7.397923635792688e-37,
545.0,0.0,0.0012474958784878,-0.0236064624041318,0.3209781348705292,0.0083711836487054,-0.030514808371663,0.3202856183052063,-0.0042775692418217,-0.0247488711029291,-0.2477518916130066,0.0,0.0,0.0,0.0,0.0,0.0,0.0,0.0,0.0,0.9922516345977784,-0.0125434687361121,-0.0005933113279752,-0.1235753819346427,0.0,-0.2437956184148788,0.0,1026.1497802734375,24.11081314086914,8.269106846355541e-35,1.204049587249756,1.508400080616744e-27,0.4899999797344208,-7.397923635792688e-37,
545.0,0.0,-0.0552626736462116,-0.0459554232656955,0.4286670386791229,-0.0412254109978675,-0.0676322877407074,0.4273692369461059,-0.0027445100713521,-0.0224231518805027,-0.2460894137620926,0.0,0.0,0.0,0.0,0.0,0.0,0.0,0.0,0.0,0.9923701882362366,-0.0112949339672923,1.421111937816022e-05,-0.1227413937449455,0.0,0.0,0.0,1026.1236572265625,24.106149673461918,8.269106846355541e-35,1.2040377855300903,1.508400080616744e-27,0.4899999797344208,-7.397923635792688e-37,
545.0,0.0,-0.0207839999347925,-0.0172865204513072,0.2697076499462127,-0.0153388027101755,-0.0275814924389123,0.2692132890224457,-0.0023000175133347,-0.0213812347501516,-0.2455075681209564,0.0,0.0,0.0,0.0,0.0,0.0,0.0,0.0,0.0,0.992412269115448,-0.0107507267966866,0.0001676949905231,-0.1224503517150878,0.0,0.1006325408816337,0.0,1026.1300048828125,24.103816986083984,8.269106846355541e-35,1.2040547132492063,1.508400080616744e-27,0.4899999797344208,-7.397923635792688e-37,
545.0,0.0,0.0114929247647523,-0.0052437153644859,0.3624601066112518,0.0132626285776495,-0.0096309343352913,0.3623066246509552,-0.0023114548530429,-0.0202816147357225,-0.2464593946933746,0.0,0.0,0.0,0.0,0.0,0.0,0.0,0.0,0.0,0.9923596382141112,-0.010205740109086,9.9552096799016e-05,-0.122922770678997,0.0,0.0,0.0,1026.1031494140625,24.103816986083984,8.269106846355541e-35,1.2040231227874756,1.508400080616744e-27,0.4899999797344208,-7.397923635792688e-37,
545.0,0.0,0.0043157488107681,0.0103320144116878,0.3190536201000213,0.0014625861076638,0.0045920247212052,0.3192110359668731,0.0008826288976706,-0.020267903804779,-0.23926742374897,0.0,0.0,0.0,0.0,0.0,0.0,0.0,0.0,0.0,0.9927977919578552,-0.0100086359307169,0.0016475858865305,-0.1193374693393707,0.0,0.0477225296199321,0.0,1026.115234375,24.102651596069336,8.269106846355541e-35,1.2040420770645142,1.508400080616744e-27,0.4899999797344208,-7.397923635792688e-37,
545.0,0.0,-0.0236134827136993,-0.041067499667406,0.3146257102489471,-0.0124999033287167,-0.0536947436630725,0.3133566677570343,-0.0020100371912121,-0.0260475650429725,-0.2409310340881347,0.0,0.0,0.0,0.0,0.0,0.0,0.0,0.0,0.0,0.9926623702049256,-0.0130497384816408,0.0005674187559634,-0.1201765984296798,0.0,0.0,0.0,1026.100341796875,24.102651596069336,8.269106846355541e-35,1.2040245532989502,1.508400080616744e-27,0.4899999797344208,-7.397923635792688e-37,
545.0,0.0,0.0009500498999841,0.0022793184034526,0.3281478583812713,0.0017578261904418,-0.0064855865202844,0.3280856907367706,-0.0042198579758405,-0.0272042024880647,-0.2432454377412796,0.0,0.0,0.0,0.0,0.0,0.0,0.0,0.0,0.0,0.992511510848999,-0.0137570826336741,-0.0004439683107193,-0.1213396042585372,0.0,-0.1545786410570144,0.0,1026.120849609375,24.104984283447266,8.269106846355541e-35,1.204039216041565,1.508400080616744e-27,0.4899999797344208,-7.397923635792688e-37,
545.0,0.0,0.0878341048955917,-0.053765557706356,0.3351535499095917,0.0992398262023925,-0.0384879410266876,0.3340681791305542,-0.0030613366980105,-0.0224672053009271,-0.2437959015369415,0.0,0.0,0.0,0.0,0.0,0.0,0.0,0.0,0.0,0.9925096035003662,-0.011336063966155,-0.0001532917667645,-0.1216050311923027,0.0,0.0,0.0,1026.1148681640625,24.104984283447266,8.269106846355541e-35,1.2040321826934814,1.508400080616744e-27,0.4899999797344208,-7.397923635792688e-37,
545.0,0.0,0.0047610001638531,0.0094378935173153,0.3255405128002167,0.0031600811053067,0.0051306444220244,0.3256538212299347,-0.00261015095748,-0.0159228239208459,-0.2468622326850891,0.0,0.0,0.0,0.0,0.0,0.0,0.0,0.0,0.0,0.9923546314239502,-0.0080613950267434,-0.0003149323747493,-0.1231237649917602,0.0,0.0280110239982604,0.0,1026.084716796875,24.106149673461918,8.269106846355541e-35,1.2039921283721924,1.508400080616744e-27,0.4899999797344208,-7.397923635792688e-37,
545.0,0.0,0.0023781298659741,-0.0040387487970292,0.3701715171337127,0.0050111780874431,-0.0115741332992911,0.3699833154678345,-0.0046207811683416,-0.0222834795713424,-0.2492070794105529,0.0,0.0,0.0,0.0,0.0,0.0,0.0,0.0,0.0,0.9921755790710448,-0.0113421771675348,-0.0009076704736799,-0.1242983490228653,0.0,0.0,0.0,1026.1168212890625,24.11081314086914,8.269106846355541e-35,1.204010844230652,1.508400080616744e-27,0.4899999797344208,-7.397923635792688e-37,
545.0,0.0,0.0016679347027093,-0.0125833023339509,0.3126287162303924,0.0048585752956569,-0.0184988733381032,0.3122986257076263,-0.0002369534777244,-0.0215757377445697,-0.2546985745429992,0.0,0.0,0.0,0.0,0.0,0.0,0.0,0.0,0.0,0.991840124130249,-0.0107153048738837,0.0012525740312412,-0.1269987076520919,0.0,0.0746965184807777,0.0,1026.120849609375,24.104984283447266,8.269106846355541e-35,1.204039216041565,1.508400080616744e-27,0.4899999797344208,-7.397923635792688e-37,
545.0,0.0,0.0104638868942856,-0.0082685146480798,0.2980794608592987,0.0133510073646903,-0.0115275280550122,0.2978533506393432,-0.0037688994780182,-0.0208213329315185,-0.258097767829895,0.0,0.0,0.0,0.0,0.0,0.0,0.0,0.0,0.0,0.9916226267814636,-0.0105663500726223,-0.0005289586842991,-0.1287027150392532,0.0,0.0,0.0,1026.105712890625,24.106149673461918,8.269106846355541e-35,1.2040166854858398,1.508400080616744e-27,0.4899999797344208,-7.397923635792688e-37,
545.0,0.0,0.0429091267287731,-0.0084246164187788,0.3404111564159393,0.0448350459337234,-0.0032434337772428,0.3402487337589264,-0.0034858859144151,-0.0172673910856246,-0.2540961503982544,0.0,0.0,0.0,0.0,0.0,0.0,0.0,0.0,0.0,0.9918956160545348,-0.008784788660705,-0.0006349113536998,-0.1267160475254058,0.0,-0.1255309879779815,0.0,1026.1322021484375,24.10848045349121,8.269106846355541e-35,1.204038381576538,1.508400080616744e-27,0.4899999797344208,-7.397923635792688e-37,
545.0,0.0,-0.0098899928852915,-0.0229206010699272,0.3199405372142792,-0.0037150920834392,-0.0313771776854991,0.3193509578704834,-0.0003794781223405,-0.0209933687001466,-0.253055602312088,0.0,0.0,0.0,0.0,0.0,0.0,0.0,0.0,0.0,0.9919468760490416,-0.0104364799335598,0.0011363385710865,-0.1261849403381347,0.0,0.0,0.0,1026.1165771484375,24.11197853088379,8.269106846355541e-35,1.2040058374404907,1.508400080616744e-27,0.4899999797344208,-7.397923635792688e-37,
545.0,0.0,0.0230810921639204,-0.0012976985890418,0.4770955741405487,0.0252901557832956,-0.0043793269433081,0.4769611358642578,-0.0054823202081024,-0.0186182297766208,-0.2521222531795501,0.0,0.0,0.0,0.0,0.0,0.0,0.0,0.0,0.0,0.9920106530189514,-0.0095796631649136,-0.0015489131910726,-0.1257463693618774,0.0,-0.105821669101715,0.0,1026.119873046875,24.11081314086914,8.269106846355541e-35,1.2040144205093384,1.508400080616744e-27,0.4899999797344208,-7.397923635792688e-37,
545.0,0.0,0.0700629204511642,-0.0030677621252834,0.4060868918895721,0.0715766102075576,0.0060229273512959,0.4057861566543579,-0.0073535172268748,-0.0211480483412742,-0.2535150945186615,0.0,0.0,0.0,0.0,0.0,0.0,0.0,0.0,0.0,0.991905689239502,-0.0109536619856953,-0.0023103523999452,-0.1264484673738479,0.0,0.0,0.0,1026.09521484375,24.11430931091309,8.269106846355541e-35,1.2039713859558103,1.508400080616744e-27,0.4899999797344208,-7.397923635792688e-37,
545.0,0.0,-0.0015033222734928,0.0094660352915525,0.2768706977367401,-0.0023060743696987,0.0022397397551685,0.2770155966281891,-0.0053682080470025,-0.0236949790269136,-0.2493103742599487,0.0,0.0,0.0,0.0,0.0,0.0,0.0,0.0,0.0,0.9921593070030212,-0.01208889298141,-0.001190114649944,-0.1243544742465019,0.0,-0.1815540194511413,0.0,1026.1234130859375,24.10731506347656,8.269106846355541e-35,1.2040327787399292,1.508400080616744e-27,0.4899999797344208,-7.397923635792688e-37,
545.0,0.0,0.0266686733812093,-0.0305400677025318,0.212227776646614,0.0343699306249618,-0.0272066891193389,0.2115709483623504,-0.0045548574998974,-0.0199528820812702,-0.2503719329833984,0.0,0.0,0.0,0.0,0.0,0.0,0.0,0.0,0.0,0.992115557193756,-0.0101824840530753,-0.0010138797806575,-0.1248747259378433,0.0,0.0,0.0,1026.1014404296875,24.11314392089844,8.269106846355541e-35,1.2039834260940552,1.508400080616744e-27,0.4899999797344208,-7.397923635792688e-37,
545.0,0.0,0.0030576467979699,-0.0268520656973123,0.4131374061107635,0.0106988158077001,-0.0335226617753505,0.412519097328186,-0.0025733385700732,-0.0200408622622489,-0.2511832118034363,0.0,0.0,0.0,0.0,0.0,0.0,0.0,0.0,0.0,0.9920676350593568,-0.0101024573668837,-2.132631379936356e-05,-0.1252676248550415,0.0,0.0072622527368366,0.0,1026.10107421875,24.11547470092773,8.269106846355541e-35,1.2039735317230225,1.508400080616744e-27,0.4899999797344208,-7.397923635792688e-37,
545.0,0.0,0.0050457878969609,0.0567004270851612,0.3555364310741424,-0.0092521915212273,0.0460728853940963,0.3569820523262024,-0.0009450656361877,-0.0281735453754663,-0.2580018043518066,0.0,0.0,0.0,0.0,0.0,0.0,0.0,0.0,0.0,0.9915876388549804,-0.0140299880877137,0.001343541429378,-0.1286367326974868,0.0,0.0,0.0,1026.1190185546875,24.11547470092773,8.269106846355541e-35,1.2039945125579834,1.508400080616744e-27,0.4899999797344208,-7.397923635792688e-37,
545.0,0.0,-0.0104124210774898,-0.0029874967876821,0.3632087409496307,-0.009549674578011,-0.0139681529253721,0.3629731237888336,0.0004910138086415,-0.0235055051743984,-0.2460003197193145,0.0,0.0,0.0,0.0,0.0,0.0,0.0,0.0,0.0,0.992372751235962,-0.0116335246711969,0.0016855453141033,-0.1226784139871597,0.0,0.3522290587425232,0.0,1026.0986328125,24.11197853088379,8.269106846355541e-35,1.2039848566055298,1.508400080616744e-27,0.4899999797344208,-7.397923635792688e-37,
545.0,0.0,0.0099551267921924,0.0220034830272197,0.3128947913646698,0.0056410459801554,0.0156995858997106,0.3133791387081146,-0.0045564407482743,-0.0258036646991968,-0.2494304180145263,0.0,0.0,0.0,0.0,0.0,0.0,0.0,0.0,0.0,0.9921402335166932,-0.0130845550447702,-0.0006555134314112,-0.1244101375341415,0.0,0.0,0.0,1026.1253662109375,24.11314392089844,8.269106846355541e-35,1.2040114402770996,1.508400080616744e-27,0.4899999797344208,-7.397923635792688e-37,
545.0,0.0,0.0098395990207791,-0.0129745351150631,0.3629216849803924,0.0136079275980591,-0.0179359000176191,0.3625856339931488,-0.0022761858999729,-0.0216333158314228,-0.2537897229194641,0.0,0.0,0.0,0.0,0.0,0.0,0.0,0.0,0.0,0.9918954968452454,-0.0108734527602791,0.0002399841760052,-0.1265588104724884,0.0,-0.0477238185703754,0.0,1026.1187744140625,24.116641998291016,8.269106846355541e-35,1.2039895057678225,1.508400080616744e-27,0.4899999797344208,-7.397923635792688e-37,
545.0,0.0,-0.0014224894111976,-0.0077648600563406,0.3554420173168182,0.0018086275085806,-0.0151405939832329,0.3551997244358063,-0.00348143116571,-0.0204521734267473,-0.2536068260669708,0.0,0.0,0.0,0.0,0.0,0.0,0.0,0.0,0.0,0.9919116497039796,-0.0103638786822557,-0.00043345434824,-0.1264742314815521,0.0,0.0,0.0,1026.124755859375,24.116641998291016,8.269106846355541e-35,1.2039965391159058,1.508400080616744e-27,0.4899999797344208,-7.397923635792688e-37,
545.0,0.0,-0.0035951172467321,-0.0121188918128609,0.3339328467845917,0.0010246768360957,-0.0193182509392499,0.3336089551448822,-0.0042947474867105,-0.0200254172086715,-0.2559850215911865,0.0,0.0,0.0,0.0,0.0,0.0,0.0,0.0,0.0,0.9917614459991456,-0.0102046625688672,-0.0008516823872923,-0.1276574730873108,0.0,0.104785643517971,0.0,1026.10986328125,24.116641998291016,8.269106846355541e-35,1.2039791345596311,1.508400080616744e-27,0.4899999797344208,-7.397923635792688e-37,
545.0,0.0,0.0059447372332215,-0.0430867075920105,0.3272542655467987,0.0168571844696998,-0.0467478409409523,0.3263677358627319,-0.000477822322864,-0.0201564002782106,-0.2569917142391205,0.0,0.0,0.0,0.0,0.0,0.0,0.0,0.0,0.0,0.9917011260986328,-0.0100255170837044,0.0010544885881245,-0.1281379014253616,0.0,0.0,0.0,1026.1151123046875,24.12013816833496,8.269106846355541e-35,1.2039711475372314,1.508400080616744e-27,0.4899999797344208,-7.397923635792688e-37,
545.0,0.0,0.0042596654966473,-0.0460427477955818,0.3482532203197479,0.0152219217270612,-0.0496137179434299,0.3474524319171905,0.0015548442024737,-0.0176635142415761,-0.2556337118148803,0.0,0.0,0.0,0.0,0.0,0.0,0.0,0.0,0.0,0.9918004870414734,-0.0086604673415422,0.0018968100193887,-0.127456784248352,0.0,0.1281306147575378,0.0,1026.0914306640625,24.118972778320312,8.269106846355541e-35,1.2039480209350586,1.508400080616744e-27,0.4899999797344208,-7.397923635792688e-37,
545.0,0.0,-0.0083209695294499,-0.0315026715397834,0.3212346732616424,0.0003984502691309,-0.0406598672270774,0.3203096389770508,-0.0014257662696763,-0.0251790042966604,-0.2564098536968231,0.0,0.0,0.0,0.0,0.0,0.0,0.0,0.0,0.0,0.9917089343070984,-0.0125769330188632,0.0009025892359204,-0.1278522163629531,0.0,0.0,0.0,1026.10986328125,24.116641998291016,8.269106846355541e-35,1.2039791345596311,1.508400080616744e-27,0.4899999797344208,-7.397923635792688e-37,
545.0,0.0,-0.0319995731115341,-0.0292164459824562,0.2994575202465057,-0.022785909473896,-0.0436348803341388,0.2985426187515259,-0.002327469876036,-0.0241416078060865,-0.2580773532390594,0.0,0.0,0.0,0.0,0.0,0.0,0.0,0.0,0.0,0.9916073083877563,-0.0121198408305644,0.0003992564452346,-0.1286848187446594,0.0,0.0508370697498321,0.0,1026.1065673828125,24.117807388305664,8.269106846355541e-35,1.2039705514907837,1.508400080616744e-27,0.4899999797344208,-7.397923635792688e-37,
