msg_type,mass,time,ax,ay,az,ax_local,ay_local,az_local,pitch,roll,yaw,vx,vy,vz,vx_local,vy_local,vz_local,x,y,z,qw,qx,qy,qz,apogee,baro_altitude,altitude,baro_pressure,baro_temperature,air_pressure,air_density,air_temperature,drag_coefficient,cd
545.0,0.0,-2.724539041519165,-2.3655130863189697,-0.9870186448097228,-3.7143304347991934,0.2604642808437347,0.3586731851100921,-0.3678425550460815,0.0601558610796928,0.7811095714569092,0.0,0.0,0.0,0.0,0.0,0.0,0.0,0.0,0.0,0.9065930247306824,0.0969334989786148,-0.1577828377485275,0.3791955411434173,0.0,-0.0781715735793113,0.0,1026.1700439453125,23.1875,6.541112285756916e-20,1.207824945449829,-1.988314735902101e+24,0.4699999988079071,-1.95632777563952e+37,
545.0,0.0,-2.69601845741272,-2.350820541381836,-1.0570669174194336,-3.7070040702819824,0.3096732497215271,0.2725026905536651,-0.3662552535533905,0.0570863336324691,0.7992848753929138,0.0,0.0,0.0,0.0,0.0,0.0,0.0,0.0,0.0,0.9034016132354736,0.0966774895787239,-0.1567696928977966,0.3872131407260895,0.0,-0.0781715735793113,0.0,1026.1700439453125,23.1875,6.541112285756916e-20,1.207824945449829,-1.988314735902101e+24,0.4699999988079071,-1.95632777563952e+37,
545.0,0.0,-2.6675572395324707,-2.347614049911499,-1.0694074630737305,-3.685783624649048,0.3550843298435211,0.2438636124134063,-0.3647194802761078,0.0536521449685096,0.8179408311843872,0.0,0.0,0.0,0.0,0.0,0.0,0.0,0.0,0.0,0.9000536203384399,0.0962937772274017,-0.1558461189270019,0.3953917324542999,0.0,0.1065274477005004,0.0,1026.157470703125,23.1875,6.541112285756916e-20,1.2078101634979248,-1.988314735902101e+24,0.4699999988079071,-1.95632777563952e+37,
545.0,0.0,-2.638883113861084,-2.306217193603516,-1.01568603515625,-3.614256381988525,0.4245373904705047,0.2658203542232513,-0.3631782233715057,0.0507337339222431,0.8356323838233948,0.0,0.0,0.0,0.0,0.0,0.0,0.0,0.0,0.0,0.896797776222229,0.096056044101715,-0.1548826843500137,0.4031502306461334,0.0,0.1065274477005004,0.0,1026.157470703125,23.1875,6.541112285756916e-20,1.2078101634979248,-1.988314735902101e+24,0.4699999988079071,-1.95632777563952e+37,
545.0,0.0,-2.558072805404663,-2.3698155879974365,-1.1379690170288086,-3.645907163619995,0.3761562407016754,0.1427541971206665,-0.3611468076705932,0.0481362603604793,0.8531899452209473,0.0,0.0,0.0,0.0,0.0,0.0,0.0,0.0,0.0,0.8935261964797974,0.0958425998687744,-0.1536560356616974,0.4108607769012451,0.0,0.1065274477005004,0.0,1026.157470703125,23.1875,6.541112285756916e-20,1.2078101634979248,-1.988314735902101e+24,0.4699999988079071,-1.95632777563952e+37,
545.0,0.0,-2.5918543338775635,-2.395883321762085,-0.9731674790382384,-3.6206910610198975,0.4533425569534302,0.2997997999191284,-0.3591780364513397,0.0451582111418247,0.8709279894828796,0.0,0.0,0.0,0.0,0.0,0.0,0.0,0.0,0.0,0.890160083770752,0.0954716503620147,-0.1525437831878662,0.4185957908630371,0.0,0.1065274477005004,0.0,1026.157470703125,23.1875,6.541112285756916e-20,1.2078101634979248,-1.988314735902101e+24,0.4699999988079071,-1.95632777563952e+37,
545.0,0.0,-2.6259896755218506,-2.4670422077178955,-1.0831575393676758,-3.723818302154541,0.4930267035961151,0.2126455605030059,-0.357116162776947,0.0423593968152999,0.8888199329376221,0.0,0.0,0.0,0.0,0.0,0.0,0.0,0.0,0.0,0.8866893649101257,0.0951594412326812,-0.1513629853725433,0.4263891577720642,0.0,0.3169998228549957,0.0,1026.1199951171875,23.1875,6.541112285756916e-20,1.207766056060791,-1.988314735902101e+24,0.4699999988079071,-1.95632777563952e+37,
545.0,0.0,-2.5255630016326904,-2.4768288135528564,-1.0550765991210938,-3.655245304107666,0.4694516956806183,0.2119092941284179,-0.3551191091537475,0.039419550448656,0.906275749206543,0.0,0.0,0.0,0.0,0.0,0.0,0.0,0.0,0.0,0.8832424283027649,0.0947519168257713,-0.1502797305583953,0.4339499771595001,0.0,0.3169998228549957,0.0,1026.1199951171875,23.1875,6.541112285756916e-20,1.207766056060791,-1.988314735902101e+24,0.4699999988079071,-1.95632777563952e+37,
545.0,0.0,-2.4614150524139404,-2.4445724487304688,-1.0597782135009766,-3.588736295700073,0.4973538219928741,0.1761219501495361,-0.3533482849597931,0.0363537929952144,0.9238698482513428,0.0,0.0,0.0,0.0,0.0,0.0,0.0,0.0,0.0,0.8796837329864502,0.0943363010883331,-0.1493359357118606,0.4415287673473358,0.0,0.3169998228549957,0.0,1026.1199951171875,23.1875,6.541112285756916e-20,1.207766056060791,-1.988314735902101e+24,0.4699999988079071,-1.95632777563952e+37,
545.0,0.0,-2.409408569335937,-2.4747414588928223,-1.0639781951904297,-3.576302289962769,0.4956173002719879,0.1607886701822281,-0.3512139022350311,0.0333887375891208,0.9411152601242064,0.0,0.0,0.0,0.0,0.0,0.0,0.0,0.0,0.0,0.8761593699455261,0.0938483700156211,-0.1482448130846023,0.4489459693431854,0.0,0.3169998228549957,0.0,1026.1199951171875,23.1875,6.541112285756916e-20,1.207766056060791,-1.988314735902101e+24,0.4699999988079071,-1.95632777563952e+37,
545.0,0.0,-2.396677017211914,-2.494410514831543,-0.9964743256568908,-3.5522680282592773,0.5354026556015015,0.2315784096717834,-0.3532854318618774,0.0306444112211465,0.9586299061775208,0.0,0.0,0.0,0.0,0.0,0.0,0.0,0.0,0.0,0.8721557259559631,0.0944138616323471,-0.1489496827125549,0.4563289582729339,0.0,-0.2533862590789795,0.0,1026.1500244140625,23.1875,6.541112285756916e-20,1.207801342010498,-1.988314735902101e+24,0.4699999988079071,-1.95632777563952e+37,
545.0,0.0,-2.46634840965271,-2.6018834114074707,-0.9326525330543518,-3.642266511917114,0.5935522317886353,0.3222893178462982,-0.3505809009075165,0.0281920842826366,0.9758280515670776,0.0,0.0,0.0,0.0,0.0,0.0,0.0,0.0,0.0,0.8685340285301208,0.0940054357051849,-0.1475234478712082,0.4637240767478943,0.0,-0.2533862590789795,0.0,1026.1500244140625,23.1875,6.541112285756916e-20,1.207801342010498,-1.988314735902101e+24,0.4699999988079071,-1.95632777563952e+37,
545.0,0.0,-2.370884418487549,-2.516657590866089,-0.9764710068702698,-3.5321929454803467,0.6165319681167603,0.2268100976943969,-0.3479790687561035,0.0256675202399492,0.9927192330360411,0.0,0.0,0.0,0.0,0.0,0.0,0.0,0.0,0.0,0.8649128675460815,0.0935490503907203,-0.1461908966302871,0.4709503948688507,0.0,-0.2533862590789795,0.0,1026.1500244140625,23.1875,6.541112285756916e-20,1.207801342010498,-1.988314735902101e+24,0.4699999988079071,-1.95632777563952e+37,
545.0,0.0,-2.2822959423065186,-2.542631149291992,-0.9585495591163636,-3.492966651916504,0.5841984152793884,0.2243940383195877,-0.3452781736850738,0.02291776612401,1.0095583200454712,0.0,0.0,0.0,0.0,0.0,0.0,0.0,0.0,0.0,0.861257791519165,0.0929518863558769,-0.1448899060487747,0.4781146645545959,0.0,-0.2533862590789795,0.0,1026.1500244140625,23.1875,6.541112285756916e-20,1.207801342010498,-1.988314735902101e+24,0.4699999988079071,-1.95632777563952e+37,
545.0,0.0,-2.322865724563598,-2.5489697456359863,-1.0172796249389648,-3.5248501300811768,0.6899873614311218,0.1641420274972915,-0.3425067663192749,0.0184278413653373,1.0322834253311155,0.0,0.0,0.0,0.0,0.0,0.0,0.0,0.0,0.0,0.8561922311782837,0.0919989049434661,-0.1437308490276336,0.4876516163349151,0.0,-0.2327018976211547,0.0,1026.177490234375,23.1875,6.541112285756916e-20,1.2078336477279663,-1.988314735902101e+24,0.4699999988079071,-1.95632777563952e+37,
545.0,0.0,-2.227480888366699,-2.5934839248657227,-1.042633056640625,-3.5140748023986816,0.6403729915618896,0.1261252015829086,-0.3397826552391052,0.01600793749094,1.0489729642868042,0.0,0.0,0.0,0.0,0.0,0.0,0.0,0.0,0.0,0.8524108529090881,0.0914934650063514,-0.1423939168453216,0.4947125315666199,0.0,-0.2327018976211547,0.0,1026.177490234375,23.1875,6.541112285756916e-20,1.2078336477279663,-1.988314735902101e+24,0.4699999988079071,-1.95632777563952e+37,
545.0,0.0,-2.2422537803649902,-2.5856432914733887,-0.9488278031349182,-3.4724016189575195,0.7130432724952698,0.2175182402133941,-0.3414899408817291,0.0135866580531001,1.0653836727142334,0.0,0.0,0.0,0.0,0.0,0.0,0.0,0.0,0.0,0.8483068943023682,0.0920580849051475,-0.1429708898067474,0.5014496445655823,0.0,-0.2327018976211547,0.0,1026.177490234375,23.1875,6.541112285756916e-20,1.2078336477279663,-1.988314735902101e+24,0.4699999988079071,-1.95632777563952e+37,
545.0,0.0,-2.1403567790985107,-2.5397298336029053,-1.0442981719970703,-3.410017251968384,0.6972296237945557,0.0858619064092636,-0.3386194109916687,0.0113984029740095,1.0817097425460815,0.0,0.0,0.0,0.0,0.0,0.0,0.0,0.0,0.0,0.8444992303848267,0.0915712416172027,-0.1415573954582214,0.5083199143409729,0.0,-0.2327018976211547,0.0,1026.177490234375,23.1875,6.541112285756916e-20,1.2078336477279663,-1.988314735902101e+24,0.4699999988079071,-1.95632777563952e+37,
545.0,0.0,-2.141983985900879,-2.6228227615356445,-0.8853235840797424,-3.4171059131622314,0.7161559462547302,0.2477861791849136,-0.3355019390583038,0.0085618114098906,1.098418116569519,0.0,0.0,0.0,0.0,0.0,0.0,0.0,0.0,0.0,0.8405802845954895,0.090757668018341,-0.1402070224285125,0.5152878165245056,0.0,0.3169998228549957,0.0,1026.1400146484375,23.1875,6.541112285756916e-20,1.2077895402908323,-1.988314735902101e+24,0.4699999988079071,-1.95632777563952e+37,
545.0,0.0,-2.116071939468384,-2.5941200256347656,-0.9375525116920472,-3.3883602619171143,0.7583500742912292,0.1730547100305557,-0.3323939740657806,0.0063201352022588,1.1147170066833496,0.0,0.0,0.0,0.0,0.0,0.0,0.0,0.0,0.0,0.8366774320602417,0.0901499167084693,-0.1387469917535781,0.5220967531204224,0.0,0.3169998228549957,0.0,1026.1400146484375,23.1875,6.541112285756916e-20,1.2077895402908323,-1.988314735902101e+24,0.4699999988079071,-1.95632777563952e+37,
545.0,0.0,-2.086881160736084,-2.5753324031829834,-0.8869076371192932,-3.332592010498047,0.7923641800880432,0.1995180249214172,-0.3294719159603119,0.0034167284611612,1.1309549808502195,0.0,0.0,0.0,0.0,0.0,0.0,0.0,0.0,0.0,0.8327469825744629,0.0892931222915649,-0.1375611573457718,0.5287984013557434,0.0,0.3169998228549957,0.0,1026.1400146484375,23.1875,6.541112285756916e-20,1.2077895402908323,-1.988314735902101e+24,0.4699999988079071,-1.95632777563952e+37,
545.0,0.0,-1.90762197971344,-2.605201482772827,-0.8832464814186096,-3.275359630584717,0.6687936186790466,0.1754143834114074,-0.3263948857784271,0.0012567460071295,1.1473280191421509,0.0,0.0,0.0,0.0,0.0,0.0,0.0,0.0,0.0,0.8286988139152527,0.0886979028582573,-0.1361289173364639,0.535585343837738,0.0,0.2321898192167282,0.0,1026.112548828125,23.1875,6.541112285756916e-20,1.2077572345733645,-1.988314735902101e+24,0.4699999988079071,-1.95632777563952e+37,
545.0,0.0,-2.0140841007232666,-2.490478277206421,-0.973279058933258,-3.233970642089844,0.8626115322113037,0.0586287900805473,-0.3234811723232269,-0.0010648211464285,1.163469910621643,0.0,0.0,0.0,0.0,0.0,0.0,0.0,0.0,0.0,0.8246492743492126,0.0880466774106025,-0.1348368525505066,0.5422287583351135,0.0,0.2321898192167282,0.0,1026.112548828125,23.1875,6.541112285756916e-20,1.2077572345733645,-1.988314735902101e+24,0.4699999988079071,-1.95632777563952e+37,
545.0,0.0,-1.982881784439087,-2.6023268699646,-0.924746572971344,-3.2923619747161865,0.8393771052360535,0.1211981028318405,-0.3204931914806366,-0.0031985908281058,1.1792643070220947,0.0,0.0,0.0,0.0,0.0,0.0,0.0,0.0,0.0,0.8206338882446289,0.0874131694436073,-0.1334972232580185,0.5487159490585327,0.0,0.2321898192167282,0.0,1026.112548828125,23.1875,6.541112285756916e-20,1.2077572345733645,-1.988314735902101e+24,0.4699999988079071,-1.95632777563952e+37,
545.0,0.0,-2.034947633743286,-2.6043176651000977,-0.8832960724830627,-3.286598920822144,0.936824917793274,0.1553296446800232,-0.3175567388534546,-0.005183155182749,1.1951591968536377,0.0,0.0,0.0,0.0,0.0,0.0,0.0,0.0,0.0,0.8165252208709717,0.0868452563881874,-0.1321511268615722,0.555222749710083,0.0,0.2321898192167282,0.0,1026.112548828125,23.1875,6.541112285756916e-20,1.2077572345733645,-1.988314735902101e+24,0.4699999988079071,-1.95632777563952e+37,
545.0,0.0,-1.9986754655838013,-2.522155523300171,-0.926582396030426,-3.2003135681152344,0.983271300792694,0.0742733776569366,-0.3144553899765014,-0.0078537072986364,1.2113734483718872,0.0,0.0,0.0,0.0,0.0,0.0,0.0,0.0,0.0,0.812311053276062,0.0859568044543266,-0.1309343874454498,0.5617920160293579,0.0,-0.6132879257202148,0.0,1026.18505859375,23.1875,6.541112285756916e-20,1.2078425884246826,-1.988314735902101e+24,0.4699999988079071,-1.95632777563952e+37,
545.0,0.0,-1.889742493629456,-2.533555507659912,-0.966846525669098,-3.17317008972168,0.9248756170272828,0.0154223404824733,-0.3115412294864654,-0.0100534250959753,1.226934790611267,0.0,0.0,0.0,0.0,0.0,0.0,0.0,0.0,0.0,0.8081920146942139,0.0852547883987426,-0.1297102272510528,0.5680882334709167,0.0,-0.6132879257202148,0.0,1026.18505859375,23.1875,6.541112285756916e-20,1.2078425884246826,-1.988314735902101e+24,0.4699999988079071,-1.95632777563952e+37,
545.0,0.0,-1.791922688484192,-2.554802417755127,-0.9213781952857972,-3.134417057037353,0.8719434142112732,0.0437015481293201,-0.3089243173599243,-0.0120663931593298,1.2424800395965576,0.0,0.0,0.0,0.0,0.0,0.0,0.0,0.0,0.0,0.8039984107017517,0.0846979692578315,-0.1285711973905563,0.5743466019630432,0.0,-0.6132879257202148,0.0,1026.18505859375,23.1875,6.541112285756916e-20,1.2078425884246826,-1.988314735902101e+24,0.4699999988079071,-1.95632777563952e+37,
545.0,0.0,-1.748332381248474,-2.59131407737732,-0.8873463273048401,-3.1313469409942627,0.8650190234184265,0.0720643177628517,-0.3062872290611267,-0.0143907442688941,1.2579588890075684,0.0,0.0,0.0,0.0,0.0,0.0,0.0,0.0,0.0,0.7997861504554749,0.0839935019612312,-0.1275337040424347,0.5805292129516602,0.0,-0.6132879257202148,0.0,1026.18505859375,23.1875,6.541112285756916e-20,1.2078425884246826,-1.988314735902101e+24,0.4699999988079071,-1.95632777563952e+37,
545.0,0.0,-1.8392877578735352,-2.496600151062012,-0.8741293549537659,-3.053379535675049,1.0264557600021362,0.0564381182193756,-0.3033190667629242,-0.0162901971489191,1.2734966278076172,0.0,0.0,0.0,0.0,0.0,0.0,0.0,0.0,0.0,0.7955063581466675,0.0833528116345405,-0.1262561976909637,0.5867478847503662,0.0,0.2115045636892318,0.0,1026.1600341796875,23.1875,6.541112285756916e-20,1.2078131437301636,-1.988314735902101e+24,0.4699999988079071,-1.95632777563952e+37,
545.0,0.0,-1.8702917098999023,-2.600416660308838,-0.928389608860016,-3.157775640487671,1.071840763092041,0.0386656783521175,-0.304504930973053,-0.0180815663188695,1.2886615991592407,0.0,0.0,0.0,0.0,0.0,0.0,0.0,0.0,0.0,0.7910411953926086,0.0839518830180168,-0.1266195178031921,0.5925920009613037,0.0,0.2115045636892318,0.0,1026.1600341796875,23.1875,6.541112285756916e-20,1.2078131437301636,-1.988314735902101e+24,0.4699999988079071,-1.95632777563952e+37,
545.0,0.0,-1.72334086894989,-2.591016292572021,-0.8549109101295471,-3.0744283199310303,0.977562665939331,0.078968234360218,-0.3009629547595978,-0.0202625691890716,1.3038990497589111,0.0,0.0,0.0,0.0,0.0,0.0,0.0,0.0,0.0,0.7867971062660217,0.0829920396208763,-0.1252389699220657,0.5986399054527283,0.0,0.2115045636892318,0.0,1026.1600341796875,23.1875,6.541112285756916e-20,1.2078131437301636,-1.988314735902101e+24,0.4699999988079071,-1.95632777563952e+37,
545.0,0.0,-1.6788766384124756,-2.537729024887085,-0.974952757358551,-3.0354020595550537,0.9954503178596495,-0.0668701156973838,-0.2975585758686065,-0.0221529155969619,1.3190200328826904,0.0,0.0,0.0,0.0,0.0,0.0,0.0,0.0,0.0,0.7825167179107666,0.0821636393666267,-0.1238509193062782,0.6046233773231506,0.0,0.2115045636892318,0.0,1026.1600341796875,23.1875,6.541112285756916e-20,1.2078131437301636,-1.988314735902101e+24,0.4699999988079071,-1.95632777563952e+37,
545.0,0.0,-1.64580237865448,-2.6806070804595947,-0.905403196811676,-3.1258559226989746,0.9707359075546264,0.024423124268651,-0.2941864728927612,-0.0240897871553897,1.3340058326721191,0.0,0.0,0.0,0.0,0.0,0.0,0.0,0.0,0.0,0.7782273292541504,0.0813019424676895,-0.1225146576762199,0.6105195879936218,0.0,-0.1272110044956207,0.0,1026.175048828125,23.1875,6.541112285756916e-20,1.207830786705017,-1.988314735902101e+24,0.4699999988079071,-1.95632777563952e+37,
545.0,0.0,-1.6823055744171145,-2.5334954261779785,-0.9234371781349182,-2.987265586853028,1.084344506263733,-0.0419922396540641,-0.2908885478973388,-0.0254643466323614,1.3487049341201782,0.0,0.0,0.0,0.0,0.0,0.0,0.0,0.0,0.0,0.7739503979682922,0.0806474536657333,-0.12106504291296,0.6163049936294556,0.0,-0.1272110044956207,0.0,1026.175048828125,23.1875,6.541112285756916e-20,1.207830786705017,-1.988314735902101e+24,0.4699999988079071,-1.95632777563952e+37,
545.0,0.0,-1.617458462715149,-2.472151756286621,-0.92723947763443,-2.9021894931793213,1.0763086080551147,-0.0785885900259018,-0.2879417836666107,-0.0268805772066116,1.3634244203567505,0.0,0.0,0.0,0.0,0.0,0.0,0.0,0.0,0.0,0.7696037888526917,0.0800705924630165,-0.119778424501419,0.6220479607582092,0.0,-0.1272110044956207,0.0,1026.175048828125,23.1875,6.541112285756916e-20,1.207830786705017,-1.988314735902101e+24,0.4699999988079071,-1.95632777563952e+37,
545.0,0.0,-1.6154422760009766,-2.5758888721466064,-0.8339710831642151,-2.957615852355957,1.0917633771896362,0.0276479050517082,-0.2846713662147522,-0.0285001415759325,1.3780548572540283,0.0,0.0,0.0,0.0,0.0,0.0,0.0,0.0,0.0,0.7652634978294373,0.0792936384677887,-0.1184506937861442,0.6277305483818054,0.0,-0.1272110044956207,0.0,1026.175048828125,23.1875,6.541112285756916e-20,1.207830786705017,-1.988314735902101e+24,0.4699999988079071,-1.95632777563952e+37,
545.0,0.0,-1.6069399118423462,-2.550248622894287,-0.8234253525733948,-2.913138628005981,1.130107045173645,0.0193761643022298,-0.2814671397209167,-0.0302616488188505,1.3928629159927368,0.0,0.0,0.0,0.0,0.0,0.0,0.0,0.0,0.0,0.7608230710029602,0.0784785896539688,-0.1172037571668624,0.6334385871887207,0.0,0.2756290137767792,0.0,1026.1424560546875,23.1875,6.541112285756916e-20,1.2077924013137815,-1.988314735902101e+24,0.4699999988079071,-1.95632777563952e+37,
545.0,0.0,-1.526461839675903,-2.5647289752960205,-0.7959595322608948,-2.8907177448272705,1.0881109237670898,0.0328788086771965,-0.2783213555812835,-0.0318743251264095,1.4072883129119873,0.0,0.0,0.0,0.0,0.0,0.0,0.0,0.0,0.0,0.7564494609832764,0.0777018219232559,-0.1159646138548851,0.6389762759208679,0.0,0.2756290137767792,0.0,1026.1424560546875,23.1875,6.541112285756916e-20,1.2077924013137815,-1.988314735902101e+24,0.4699999988079071,-1.95632777563952e+37,
545.0,0.0,-1.5167274475097656,-2.532036781311035,-0.7608824372291565,-2.838366270065308,1.1103404760360718,0.0358536578714847,-0.2712418138980865,-0.0326459072530269,1.416995644569397,0.0,0.0,0.0,0.0,0.0,0.0,0.0,0.0,0.0,0.7537002563476562,0.0756857991218566,-0.1131769642233848,0.6429545283317566,0.0,0.2756290137767792,0.0,1026.1424560546875,23.1875,6.541112285756916e-20,1.2077924013137815,-1.988314735902101e+24,0.4699999988079071,-1.95632777563952e+37,
545.0,0.0,-1.4822919368743896,-2.4721715450286865,-0.8146076798439026,-2.775109052658081,1.1266542673110962,-0.0409786961972713,-0.2691022157669067,-0.0343561321496963,1.4314656257629397,0.0,0.0,0.0,0.0,0.0,0.0,0.0,0.0,0.0,0.749190628528595,0.0751647725701332,-0.1123826429247856,0.6484023332595825,0.0,0.2756290137767792,0.0,1026.1424560546875,23.1875,6.541112285756916e-20,1.2077924013137815,-1.988314735902101e+24,0.4699999988079071,-1.95632777563952e+37,
545.0,0.0,-1.5144143104553225,-2.504380702972412,-0.778410017490387,-2.784298896789551,1.191134333610535,-0.0047373282723128,-0.2662739753723144,-0.0358372181653976,1.4457380771636963,0.0,0.0,0.0,0.0,0.0,0.0,0.0,0.0,0.0,0.7447253465652466,0.0744839385151863,-0.1112788990139961,0.6537928581237793,0.0,-0.0424038358032703,0.0,1026.1474609375,23.1875,6.541112285756916e-20,1.2077983617782593,-1.988314735902101e+24,0.4699999988079071,-1.95632777563952e+37,
545.0,0.0,-1.4471923112869265,-2.507966995239258,-0.8691025376319885,-2.7928812503814697,1.1524651050567627,-0.1053087636828422,-0.2633837163448334,-0.0362750142812728,1.4550607204437256,0.0,0.0,0.0,0.0,0.0,0.0,0.0,0.0,0.0,0.7418113350868225,0.0738844126462936,-0.1100070402026176,0.6573790907859802,0.0,-0.0424038358032703,0.0,1026.1474609375,23.1875,6.541112285756916e-20,1.2077983617782593,-1.988314735902101e+24,0.4699999988079071,-1.95632777563952e+37,
545.0,0.0,-1.4251258373260498,-2.4972076416015625,-0.7731743454933167,-2.739555597305298,1.1657097339630127,-0.0252851620316505,-0.2607808113098144,-0.0376508459448814,1.468985080718994,0.0,0.0,0.0,0.0,0.0,0.0,0.0,0.0,0.0,0.7373777031898499,0.0732743442058563,-0.1089904010295867,0.6625843048095703,0.0,-0.0424038358032703,0.0,1026.1474609375,23.1875,6.541112285756916e-20,1.2077983617782593,-1.988314735902101e+24,0.4699999988079071,-1.95632777563952e+37,
545.0,0.0,-1.393810749053955,-2.425931453704834,-0.8471298813819885,-2.6711575984954834,1.180974364280701,-0.1247426718473434,-0.2581041157245636,-0.0392378829419612,1.4827847480773926,0.0,0.0,0.0,0.0,0.0,0.0,0.0,0.0,0.0,0.732957124710083,0.0725445374846458,-0.1080356836318969,0.6677060723304749,0.0,-0.0424038358032703,0.0,1026.1474609375,23.1875,6.541112285756916e-20,1.2077983617782593,-1.988314735902101e+24,0.4699999988079071,-1.95632777563952e+37,
545.0,0.0,-1.3524155616760254,-2.399604082107544,-0.7465677857398987,-2.600499391555786,1.1746113300323486,-0.0452423505485057,-0.2551907002925873,-0.0408108495175838,1.4969935417175293,0.0,0.0,0.0,0.0,0.0,0.0,0.0,0.0,0.0,0.728368878364563,0.0717517361044883,-0.1069910153746604,0.6729599833488464,0.0,0.1690998822450637,0.0,1026.12744140625,23.1875,6.541112285756916e-20,1.2077747583389282,-1.988314735902101e+24,0.4699999988079071,-1.95632777563952e+37,
545.0,0.0,-1.3921056985855105,-2.446702003479004,-0.7671862244606018,-2.6377546787261963,1.246080756187439,-0.0477169007062912,-0.2568505704402923,-0.042312916368246,1.5108243227005005,0.0,0.0,0.0,0.0,0.0,0.0,0.0,0.0,0.0,0.7236868143081665,0.0725121945142746,-0.10759899020195,0.6778153777122498,0.0,0.1690998822450637,0.0,1026.12744140625,23.1875,6.541112285756916e-20,1.2077747583389282,-1.988314735902101e+24,0.4699999988079071,-1.95632777563952e+37,
545.0,0.0,-1.4319334030151367,-2.480398178100586,-0.7828522324562073,-2.6594953536987305,1.3186222314834597,-0.0620037503540515,-0.2538410425186157,-0.0431178696453571,1.5241570472717283,0.0,0.0,0.0,0.0,0.0,0.0,0.0,0.0,0.0,0.7192980051040649,0.0719051957130432,-0.1063113436102867,0.6827371120452881,0.0,0.1690998822450637,0.0,1026.12744140625,23.1875,6.541112285756916e-20,1.2077747583389282,-1.988314735902101e+24,0.4699999988079071,-1.95632777563952e+37,
545.0,0.0,-1.3733278512954712,-2.409834146499634,-0.8182631134986877,-2.580106496810913,1.2999192476272583,-0.1265152394771576,-0.250767171382904,-0.044140301644802,1.537800908088684,0.0,0.0,0.0,0.0,0.0,0.0,0.0,0.0,0.0,0.7147762179374695,0.0712004154920578,-0.1050773188471794,0.687732458114624,0.0,-0.3381917774677276,0.0,1026.16748046875,23.1875,6.541112285756916e-20,1.2078218460083008,-1.988314735902101e+24,0.4699999988079071,-1.95632777563952e+37,
545.0,0.0,-1.2544199228286743,-2.4147627353668213,-0.7591820359230042,-2.5506813526153564,1.2116003036499023,-0.0832171291112899,-0.2476657181978225,-0.0453897975385189,1.5510871410369873,0.0,0.0,0.0,0.0,0.0,0.0,0.0,0.0,0.0,0.7103497385978699,0.0703730657696724,-0.1039392352104187,0.6925600171089172,0.0,-0.3381917774677276,0.0,1026.16748046875,23.1875,6.541112285756916e-20,1.2078218460083008,-1.988314735902101e+24,0.4699999988079071,-1.95632777563952e+37,
545.0,0.0,-1.2360246181488037,-2.418588876724243,-0.8535023331642151,-2.561053514480591,1.230197787284851,-0.1824335306882858,-0.2449778914451599,-0.0465626828372478,1.5643396377563477,0.0,0.0,0.0,0.0,0.0,0.0,0.0,0.0,0.0,0.7058818936347961,0.0697038322687149,-0.1029363647103309,0.6973292827606201,0.0,-0.3381917774677276,0.0,1026.16748046875,23.1875,6.541112285756916e-20,1.2078218460083008,-1.988314735902101e+24,0.4699999988079071,-1.95632777563952e+37,
545.0,0.0,-1.2461249828338623,-2.4853715896606445,-0.7942333817481995,-2.59496808052063,1.2699763774871826,-0.1177578642964363,-0.2417478561401367,-0.0476908013224601,1.5775691270828247,0.0,0.0,0.0,0.0,0.0,0.0,0.0,0.0,0.0,0.701404333114624,0.0688472986221313,-0.1017429232597351,0.7020912170410156,0.0,-0.3381917774677276,0.0,1026.16748046875,23.1875,6.541112285756916e-20,1.2078218460083008,-1.988314735902101e+24,0.4699999988079071,-1.95632777563952e+37,
545.0,0.0,-1.1638084650039673,-2.365626096725464,-0.677340567111969,-2.435254573822021,1.215213656425476,-0.0457981973886489,-0.2385399937629699,-0.0486891269683837,1.5910820960998535,0.0,0.0,0.0,0.0,0.0,0.0,0.0,0.0,0.0,0.696786105632782,0.0680451020598411,-0.1005173921585083,0.7069279551506042,0.0,0.2963144183158874,0.0,1026.1324462890625,23.1875,6.541112285756916e-20,1.2077805995941162,-1.988314735902101e+24,0.4699999988079071,-1.95632777563952e+37,
545.0,0.0,-1.180283546447754,-2.530519723892212,-0.8503380417823792,-2.6204309463500977,1.2741611003875732,-0.1714325249195099,-0.2398958951234817,-0.0496211312711238,1.604184627532959,0.0,0.0,0.0,0.0,0.0,0.0,0.0,0.0,0.0,0.6921275854110718,0.0688646957278251,-0.100867360830307,0.7113611102104187,0.0,0.2963144183158874,0.0,1026.1324462890625,23.1875,6.541112285756916e-20,1.2077805995941162,-1.988314735902101e+24,0.4699999988079071,-1.95632777563952e+37,
545.0,0.0,-1.1435943841934204,-2.41662859916687,-0.8478260636329651,-2.4941296577453613,1.2659778594970703,-0.2078522741794586,-0.2364289909601211,-0.0502287708222866,1.6169848442077637,0.0,0.0,0.0,0.0,0.0,0.0,0.0,0.0,0.0,0.6876927614212036,0.0680519118905067,-0.0994574949145317,0.7159244418144226,0.0,0.2963144183158874,0.0,1026.1324462890625,23.1875,6.541112285756916e-20,1.2077805995941162,-1.988314735902101e+24,0.4699999988079071,-1.95632777563952e+37,
545.0,0.0,-1.1659220457077026,-2.447946071624756,-0.7660332322120667,-2.4883179664611816,1.3162591457366943,-0.119282566010952,-0.2373268902301788,-0.0509985126554966,1.629897117614746,0.0,0.0,0.0,0.0,0.0,0.0,0.0,0.0,0.0,0.6830545663833618,0.0687549486756324,-0.0995980054140091,0.7202647924423218,0.0,0.2963144183158874,0.0,1026.1324462890625,23.1875,6.541112285756916e-20,1.2077805995941162,-1.988314735902101e+24,0.4699999988079071,-1.95632777563952e+37,
545.0,0.0,-1.1080950498580933,-2.376344919204712,-0.6621590256690979,-2.381388902664185,1.2801499366760254,-0.0585659816861152,-0.2291152477264404,-0.0516300536692142,1.6424726247787476,0.0,0.0,0.0,0.0,0.0,0.0,0.0,0.0,0.0,0.6787824630737305,0.0661731511354446,-0.0966240838170051,0.7249353528022766,0.0,-0.0848075002431869,0.0,1026.1424560546875,23.1875,6.541112285756916e-20,1.2077924013137815,-1.988314735902101e+24,0.4699999988079071,-1.95632777563952e+37,
545.0,0.0,-1.0600409507751465,-2.3827965259552,-0.7039232850074768,-2.384598016738892,1.264367699623108,-0.1089119985699653,-0.2256886214017868,-0.0521928593516349,1.6551251411437988,0.0,0.0,0.0,0.0,0.0,0.0,0.0,0.0,0.0,0.6743003129959106,0.065337024629116,-0.0952609926462173,0.7293609380722046,0.0,-0.0848075002431869,0.0,1026.1424560546875,23.1875,6.541112285756916e-20,1.2077924013137815,-1.988314735902101e+24,0.4699999988079071,-1.95632777563952e+37,
545.0,0.0,-1.078166365623474,-2.3450024127960205,-0.6862640976905823,-2.3261914253234863,1.3074640035629272,-0.1081336513161659,-0.2225777953863144,-0.0529114119708538,1.6676703691482544,0.0,0.0,0.0,0.0,0.0,0.0,0.0,0.0,0.0,0.6698222756385803,0.0645453855395317,-0.094077855348587,0.733698308467865,0.0,-0.0848075002431869,0.0,1026.1424560546875,23.1875,6.541112285756916e-20,1.2077924013137815,-1.988314735902101e+24,0.4699999988079071,-1.95632777563952e+37,
545.0,0.0,-1.0680065155029297,-2.381620407104492,-0.6477890610694885,-2.337892770767212,1.3271650075912476,-0.0718317925930023,-0.219293788075447,-0.0534323789179325,1.6801044940948486,0.0,0.0,0.0,0.0,0.0,0.0,0.0,0.0,0.0,0.6653532385826111,0.0637376084923744,-0.0927817001938819,0.7379879355430603,0.0,-0.0848075002431869,0.0,1026.1424560546875,23.1875,6.541112285756916e-20,1.2077924013137815,-1.988314735902101e+24,0.4699999988079071,-1.95632777563952e+37,
545.0,0.0,-1.0266181230545044,-2.31618070602417,-0.7252607941627502,-2.279059410095215,1.311873197555542,-0.1714884638786316,-0.2161428034305572,-0.054048977792263,1.6927238702774048,0.0,0.0,0.0,0.0,0.0,0.0,0.0,0.0,0.0,0.6607850790023804,0.0629425644874572,-0.091572418808937,0.7422990202903748,0.0,-0.1696143299341201,0.0,1026.1624755859375,23.1875,6.541112285756916e-20,1.2078160047531128,-1.988314735902101e+24,0.4699999988079071,-1.95632777563952e+37,
545.0,0.0,-1.0389634370803833,-2.2215301990509038,-0.5995569825172424,-2.1426186561584477,1.3331466913223269,-0.0768963098526001,-0.2131355553865432,-0.054737489670515,1.7050431966781616,0.0,0.0,0.0,0.0,0.0,0.0,0.0,0.0,0.0,0.6562972068786621,0.0621514059603214,-0.0904597714543342,0.7464718222618103,0.0,-0.1696143299341201,0.0,1026.1624755859375,23.1875,6.541112285756916e-20,1.2078160047531128,-1.988314735902101e+24,0.4699999988079071,-1.95632777563952e+37,
545.0,0.0,-0.994983434677124,-2.404279947280884,-0.7395315766334534,-2.338542938232422,1.3470709323883057,-0.1842807680368423,-0.2096062749624252,-0.0554015561938285,1.717079997062683,0.0,0.0,0.0,0.0,0.0,0.0,0.0,0.0,0.0,0.6518983840942383,0.0611472316086292,-0.0891907438635826,0.7505508065223694,0.0,-0.1696143299341201,0.0,1026.1624755859375,23.1875,6.541112285756916e-20,1.2078160047531128,-1.988314735902101e+24,0.4699999988079071,-1.95632777563952e+37,
545.0,0.0,-0.977983057498932,-2.3169615268707275,-0.7554674744606018,-2.25025486946106,1.3357771635055542,-0.2177907973527908,-0.2108813971281051,-0.0549861267209053,1.724790334701538,0.0,0.0,0.0,0.0,0.0,0.0,0.0,0.0,0.0,0.6489569544792175,0.0621079429984092,-0.0892089009284973,0.7530146837234497,0.0,-0.1696143299341201,0.0,1026.1624755859375,23.1875,6.541112285756916e-20,1.2078160047531128,-1.988314735902101e+24,0.4699999988079071,-1.95632777563952e+37,
545.0,0.0,-0.9548566341400146,-2.293385505676269,-0.5859108567237854,-2.179270505905152,1.326967716217041,-0.0670156702399253,-0.2072170823812484,-0.0555232390761375,1.7370471954345703,0.0,0.0,0.0,0.0,0.0,0.0,0.0,0.0,0.0,0.6444316506385803,0.0610865466296672,-0.0878573581576347,0.7571322917938232,0.0,0.0848081707954406,0.0,1026.1524658203125,23.1875,6.541112285756916e-20,1.2078042030334473,-1.988314735902101e+24,0.4699999988079071,-1.95632777563952e+37,
545.0,0.0,-0.9959443807601928,-2.2885899543762207,-0.7233200669288635,-2.1792566776275635,1.3997108936309814,-0.2104388773441314,-0.203470766544342,-0.0563299506902694,1.7489043474197388,0.0,0.0,0.0,0.0,0.0,0.0,0.0,0.0,0.0,0.6400392651557922,0.0599158033728599,-0.0866100415587425,0.7610851526260376,0.0,0.0848081707954406,0.0,1026.1524658203125,23.1875,6.541112285756916e-20,1.2078042030334473,-1.988314735902101e+24,0.4699999988079071,-1.95632777563952e+37,
545.0,0.0,-0.8702359199523926,-2.314931154251098,-0.7033014893531799,-2.213418245315552,1.2948862314224243,-0.1865296214818954,-0.204787865281105,-0.0558931455016136,1.7563844919204712,0.0,0.0,0.0,0.0,0.0,0.0,0.0,0.0,0.0,0.6371463537216187,0.0608836524188518,-0.0866353288292884,0.7634291052818298,0.0,0.0848081707954406,0.0,1026.1524658203125,23.1875,6.541112285756916e-20,1.2078042030334473,-1.988314735902101e+24,0.4699999988079071,-1.95632777563952e+37,
545.0,0.0,-0.8618955016136169,-2.2783620357513428,-0.7152243256568909,-2.1663448810577397,1.306193470954895,-0.2145814597606659,-0.2013759315013885,-0.0562850087881088,1.7682318687438965,0.0,0.0,0.0,0.0,0.0,0.0,0.0,0.0,0.0,0.6326975226402283,0.05995674431324,-0.0853516906499862,0.767336905002594,0.0,0.0848081707954406,0.0,1026.1524658203125,23.1875,6.541112285756916e-20,1.2078042030334473,-1.988314735902101e+24,0.4699999988079071,-1.95632777563952e+37,
545.0,0.0,-0.9553057551383972,-2.3315176963806152,-0.6813831925392151,-2.1755523681640625,1.431072473526001,-0.1782114207744598,-0.1978469491004943,-0.056541871279478,1.7800178527832031,0.0,0.0,0.0,0.0,0.0,0.0,0.0,0.0,0.0,0.6282444596290588,0.0590110905468463,-0.0839951559901237,0.7712089419364929,0.0,-0.2337361276149749,0.0,1026.1800537109375,23.1875,6.541112285756916e-20,1.2078367471694946,-1.988314735902101e+24,0.4699999988079071,-1.95632777563952e+37,
545.0,0.0,-0.9070571660995485,-2.1559059619903564,-0.679084837436676,-2.0005476474761963,1.371539831161499,-0.2200725525617599,-0.1945729106664657,-0.0570339523255825,1.791372776031494,0.0,0.0,0.0,0.0,0.0,0.0,0.0,0.0,0.0,0.6239344477653503,0.0580593906342983,-0.0828351825475692,0.7748969197273254,0.0,-0.2337361276149749,0.0,1026.1800537109375,23.1875,6.541112285756916e-20,1.2078367471694946,-1.988314735902101e+24,0.4699999988079071,-1.95632777563952e+37,
545.0,0.0,-0.8911198973655701,-2.161834239959717,-0.6344500184059143,-1.985061526298523,1.3770511150360107,-0.1825287640094757,-0.1914669424295425,-0.0575736537575721,1.8027821779251096,0.0,0.0,0.0,0.0,0.0,0.0,0.0,0.0,0.0,0.6195774674415588,0.0571494661271572,-0.0817572697997093,0.7785663604736328,0.0,-0.2337361276149749,0.0,1026.1800537109375,23.1875,6.541112285756916e-20,1.2078367471694946,-1.988314735902101e+24,0.4699999988079071,-1.95632777563952e+37,
545.0,0.0,-0.8496548533439636,-2.193603754043579,-0.6090107560157776,-2.004410743713379,1.3643497228622437,-0.159669816493988,-0.1882530152797699,-0.0577105730772018,1.813989758491516,0.0,0.0,0.0,0.0,0.0,0.0,0.0,0.0,0.0,0.6152661442756653,0.0563023909926414,-0.0805075317621231,0.7821687459945679,0.0,-0.2337361276149749,0.0,1026.1800537109375,23.1875,6.541112285756916e-20,1.2078367471694946,-1.988314735902101e+24,0.4699999988079071,-1.95632777563952e+37,
545.0,0.0,-0.8406109809875488,-2.081364393234253,-0.6728449463844299,-1.895538330078125,1.354684352874756,-0.2511968314647674,-0.1851437538862228,-0.0581649579107761,1.825440526008606,0.0,0.0,0.0,0.0,0.0,0.0,0.0,0.0,0.0,0.6108437776565552,0.055396944284439,-0.0794194266200065,0.78580242395401,0.0,0.12669537961483,0.0,1026.1650390625,23.1875,6.541112285756916e-20,1.2078189849853516,-1.988314735902101e+24,0.4699999988079071,-1.95632777563952e+37,
545.0,0.0,-0.7826209664344788,-2.0796806812286377,-0.6559792160987854,-1.8900636434555051,1.3180025815963743,-0.2414930015802383,-0.1823375821113586,-0.0587992630898952,1.83665931224823,0.0,0.0,0.0,0.0,0.0,0.0,0.0,0.0,0.0,0.6064895391464233,0.0545372292399406,-0.0785128101706504,0.7893186211585999,0.0,0.12669537961483,0.0,1026.1650390625,23.1875,6.541112285756916e-20,1.2078189849853516,-1.988314735902101e+24,0.4699999988079071,-1.95632777563952e+37,
545.0,0.0,-0.8445783257484436,-2.1743242740631104,-0.6143818497657776,-1.940407395362854,1.4203487634658811,-0.1892011612653732,-0.1793659180402755,-0.0589596293866634,1.8476593494415283,0.0,0.0,0.0,0.0,0.0,0.0,0.0,0.0,0.0,0.6021894812583923,0.0537373535335063,-0.0773868113756179,0.7927693128585815,0.0,0.12669537961483,0.0,1026.1650390625,23.1875,6.541112285756916e-20,1.2078189849853516,-1.988314735902101e+24,0.4699999988079071,-1.95632777563952e+37,
545.0,0.0,-0.7109630703926086,-2.096572160720825,-0.7060871720314026,-1.904256582260132,1.2969423532485962,-0.3021706938743591,-0.1763590574264526,-0.0587847493588924,1.858673334121704,0.0,0.0,0.0,0.0,0.0,0.0,0.0,0.0,0.0,0.5978546142578125,0.0530132986605167,-0.0761275738477706,0.7962137460708618,0.0,0.0641231909394264,0.0,1026.157470703125,23.1875,6.541112285756916e-20,1.2078101634979248,-1.988314735902101e+24,0.4699999988079071,-1.95632777563952e+37,
545.0,0.0,-0.749832034111023,-2.1525471210479736,-0.5981550812721252,-1.9123774766922,1.3635656833648682,-0.1921160668134689,-0.1734784841537475,-0.0589645318686962,1.8693920373916624,0.0,0.0,0.0,0.0,0.0,0.0,0.0,0.0,0.0,0.5936242341995239,0.0522113144397735,-0.0750652253627777,0.799525797367096,0.0,0.0641231909394264,0.0,1026.157470703125,23.1875,6.541112285756916e-20,1.2078101634979248,-1.988314735902101e+24,0.4699999988079071,-1.95632777563952e+37,
545.0,0.0,-0.756286084651947,-2.1186115741729736,-0.6047716736793518,-1.8647440671920776,1.3799982070922852,-0.2108978182077407,-0.1707726866006851,-0.059152353554964,1.8800078630447388,0.0,0.0,0.0,0.0,0.0,0.0,0.0,0.0,0.0,0.5894133448600769,0.0514636151492595,-0.0740705803036689,0.8027756214141846,0.0,0.0641231909394264,0.0,1026.157470703125,23.1875,6.541112285756916e-20,1.2078101634979248,-1.988314735902101e+24,0.4699999988079071,-1.95632777563952e+37,
545.0,0.0,-0.8011065125465393,-2.146904945373535,-0.6518660187721252,-1.869607090950012,1.4536893367767334,-0.2591623961925506,-0.1675573587417602,-0.0593178123235702,1.8907948732376096,0.0,0.0,0.0,0.0,0.0,0.0,0.0,0.0,0.0,0.5851203203201294,0.0505134463310241,-0.0729244872927665,0.8060747385025024,0.0,0.0641231909394264,0.0,1026.157470703125,23.1875,6.541112285756916e-20,1.2078101634979248,-1.988314735902101e+24,0.4699999988079071,-1.95632777563952e+37,
545.0,0.0,-0.9442092776298524,-2.1050350666046143,-0.6864205002784729,-1.7739253044128418,1.5976427793502808,-0.3074241578578949,-0.1643388271331787,-0.0593258701264858,1.9015283584594729,0.0,0.0,0.0,0.0,0.0,0.0,0.0,0.0,0.0,0.5808248519897461,0.0495948009192943,-0.0717273652553558,0.809339165687561,0.0,0.0848081707954406,0.0,1026.1474609375,23.1875,6.541112285756916e-20,1.2077983617782593,-1.988314735902101e+24,0.4699999988079071,-1.95632777563952e+37,
545.0,0.0,-0.674870491027832,-2.046833276748657,-0.5498848557472229,-1.7695744037628174,1.33414888381958,-0.1895327568054199,-0.1616591513156891,-0.0595179498195648,1.911790132522583,0.0,0.0,0.0,0.0,0.0,0.0,0.0,0.0,0.0,0.5766997933387756,0.0488146133720874,-0.0707826018333435,0.81241375207901,0.0,0.0848081707954406,0.0,1026.1474609375,23.1875,6.541112285756916e-20,1.2077983617782593,-1.988314735902101e+24,0.4699999988079071,-1.95632777563952e+37,
545.0,0.0,-0.646821916103363,-2.0354104042053223,-0.6481123566627502,-1.7695544958114624,1.327823281288147,-0.2946275174617767,-0.1586861610412597,-0.0595777183771133,1.9222114086151123,0.0,0.0,0.0,0.0,0.0,0.0,0.0,0.0,0.0,0.5724921822547913,0.0479494072496891,-0.0697064697742462,0.8155283331871033,0.0,0.0848081707954406,0.0,1026.1474609375,23.1875,6.541112285756916e-20,1.2077983617782593,-1.988314735902101e+24,0.4699999988079071,-1.95632777563952e+37,
545.0,0.0,-0.7560535073280334,-2.015279769897461,-0.6574946045875549,-1.7000058889389038,1.4411872625350952,-0.3132815659046173,-0.1559476852416992,-0.0593975149095058,1.9323660135269165,0.0,0.0,0.0,0.0,0.0,0.0,0.0,0.0,0.0,0.5683675408363342,0.0472295731306076,-0.0686154142022132,0.8185423016548157,0.0,0.0848081707954406,0.0,1026.1474609375,23.1875,6.541112285756916e-20,1.2077983617782593,-1.988314735902101e+24,0.4699999988079071,-1.95632777563952e+37,
545.0,0.0,-0.6259899139404297,-1.9290058612823489,-0.5177050232887268,-1.630318522453308,1.2979847192764282,-0.1953803449869156,-0.1531960517168045,-0.0594096928834915,1.942654013633728,0.0,0.0,0.0,0.0,0.0,0.0,0.0,0.0,0.0,0.564176082611084,0.0464446432888507,-0.0676055774092674,0.8215654492378235,0.0,-0.0641228035092353,0.0,1026.155029296875,23.1875,6.541112285756916e-20,1.207807183265686,-1.988314735902101e+24,0.4699999988079071,-1.95632777563952e+37,
545.0,0.0,-0.78566575050354,-1.9877619743347168,-0.6127787232398987,-1.6262071132659912,1.4892163276672363,-0.285607248544693,-0.1505458950996399,-0.0591181740164756,1.9526183605194087,0.0,0.0,0.0,0.0,0.0,0.0,0.0,0.0,0.0,0.5600929856300354,0.0457667559385299,-0.0665159523487091,0.8244809508323669,0.0,-0.0641228035092353,0.0,1026.155029296875,23.1875,6.541112285756916e-20,1.207807183265686,-1.988314735902101e+24,0.4699999988079071,-1.95632777563952e+37,
545.0,0.0,-0.6758883595466614,-1.9923828840255735,-0.6047430634498596,-1.655045747756958,1.4046320915222168,-0.2826370000839233,-0.1475930213928222,-0.0592529065907001,1.9625790119171145,0.0,0.0,0.0,0.0,0.0,0.0,0.0,0.0,0.0,0.5560078620910645,0.0448348931968212,-0.0655274391174316,0.8273712992668152,0.0,-0.0641228035092353,0.0,1026.155029296875,23.1875,6.541112285756916e-20,1.207807183265686,-1.988314735902101e+24,0.4699999988079071,-1.95632777563952e+37,
545.0,0.0,-0.6975952386856079,-1.9208292961120603,-0.5552683472633362,-1.5600736141204834,1.4099669456481934,-0.2502792179584503,-0.1451987773180008,-0.0590413175523281,1.9722791910171509,0.0,0.0,0.0,0.0,0.0,0.0,0.0,0.0,0.0,0.5520026683807373,0.0442139692604541,-0.064564898610115,0.8301575779914856,0.0,-0.0641228035092353,0.0,1026.155029296875,23.1875,6.541112285756916e-20,1.207807183265686,-1.988314735902101e+24,0.4699999988079071,-1.95632777563952e+37,
545.0,0.0,-0.684032678604126,-2.0586538314819336,-0.6194153428077698,-1.6859235763549805,1.4703603982925415,-0.2919807434082031,-0.1463340371847152,-0.0586155466735363,1.982532620429993,0.0,0.0,0.0,0.0,0.0,0.0,0.0,0.0,0.0,0.5477211475372314,0.0451351441442966,-0.064468927681446,0.8329466581344604,0.0,0.3806077837944031,0.0,1026.1099853515625,23.1875,6.541112285756916e-20,1.2077542543411257,-1.988314735902101e+24,0.4699999988079071,-1.95632777563952e+37,
545.0,0.0,-0.6529233455657959,-1.9457464218139648,-0.5779066681861877,-1.5756186246871948,1.409904718399048,-0.2751990556716919,-0.143098697066307,-0.0582748129963874,1.9920676946640012,0.0,0.0,0.0,0.0,0.0,0.0,0.0,0.0,0.0,0.5437601804733276,0.044179156422615,-0.0632367730140686,0.8356829881668091,0.0,0.3806077837944031,0.0,1026.1099853515625,23.1875,6.541112285756916e-20,1.2077542543411257,-1.988314735902101e+24,0.4699999988079071,-1.95632777563952e+37,
545.0,0.0,-0.6144149899482727,-1.939284086227417,-0.5680790543556213,-1.569828987121582,1.3865821361541748,-0.2720275521278381,-0.1402793377637863,-0.0580665916204452,2.0018296241760254,0.0,0.0,0.0,0.0,0.0,0.0,0.0,0.0,0.0,0.5396896600723267,0.0433584712445735,-0.0621771961450576,0.8384397625923157,0.0,0.3806077837944031,0.0,1026.1099853515625,23.1875,6.541112285756916e-20,1.2077542543411257,-1.988314735902101e+24,0.4699999988079071,-1.95632777563952e+37,
545.0,0.0,-0.5634521842002869,-1.93623960018158,-0.6024561524391174,-1.5794585943222046,1.3555502891540527,-0.3117339015007019,-0.1375706940889358,-0.057805135846138,2.0113136768341064,0.0,0.0,0.0,0.0,0.0,0.0,0.0,0.0,0.0,0.5357192754745483,0.0425808988511562,-0.0611400119960308,0.8410978317260742,0.0,0.3806077837944031,0.0,1026.1099853515625,23.1875,6.541112285756916e-20,1.2077542543411257,-1.988314735902101e+24,0.4699999988079071,-1.95632777563952e+37,
545.0,0.0,-0.5363140106201172,-1.9531077146530151,-0.6031904816627502,-1.5923190116882324,1.3530267477035522,-0.3160206377506256,-0.1344561576843261,-0.0575198978185653,2.02091121673584,0.0,0.0,0.0,0.0,0.0,0.0,0.0,0.0,0.0,0.5316891670227051,0.0416324734687805,-0.0599918290972709,0.8437809944152832,0.0,-0.3164733648300171,0.0,1026.1474609375,23.1875,6.541112285756916e-20,1.2077983617782593,-1.988314735902101e+24,0.4699999988079071,-1.95632777563952e+37,
545.0,0.0,-0.5588119626045227,-1.8955955505371092,-0.5358696579933167,-1.510468363761902,1.358497977256775,-0.2561463415622711,-0.1363783925771713,-0.0573586970567703,2.030327320098877,0.0,0.0,0.0,0.0,0.0,0.0,0.0,0.0,0.0,0.527696430683136,0.0427723079919815,-0.0602309666574001,0.8462099432945251,0.0,-0.3164733648300171,0.0,1026.1474609375,23.1875,6.541112285756916e-20,1.2077983617782593,-1.988314735902101e+24,0.4699999988079071,-1.95632777563952e+37,
545.0,0.0,-0.5961105227470398,-1.8743159770965576,-0.5450401902198792,-1.4629720449447632,1.396375060081482,-0.2743344902992248,-0.1337022185325622,-0.0568017177283763,2.039536952972412,0.0,0.0,0.0,0.0,0.0,0.0,0.0,0.0,0.0,0.5237970948219299,0.0420567505061626,-0.0591005161404609,0.8487443327903748,0.0,-0.3164733648300171,0.0,1026.1474609375,23.1875,6.541112285756916e-20,1.2077983617782593,-1.988314735902101e+24,0.4699999988079071,-1.95632777563952e+37,
545.0,0.0,-0.5174251198768616,-1.8748468160629272,-0.4861870110034942,-1.478047490119934,1.3363081216812134,-0.2207874804735183,-0.1308175176382064,-0.0565074980258941,2.0486903190612797,0.0,0.0,0.0,0.0,0.0,0.0,0.0,0.0,0.0,0.519915759563446,0.0411727540194988,-0.058036919683218,0.8512437343597412,0.0,-0.3164733648300171,0.0,1026.1474609375,23.1875,6.541112285756916e-20,1.2077983617782593,-1.988314735902101e+24,0.4699999988079071,-1.95632777563952e+37,
545.0,0.0,-0.5513253808021545,-1.8506041765213013,-0.6119547486305237,-1.445914387702942,1.3753070831298828,-0.3478224873542785,-0.1326840668916702,-0.0561012364923954,2.0580739974975586,0.0,0.0,0.0,0.0,0.0,0.0,0.0,0.0,0.0,0.5158984065055847,0.0423478744924068,-0.0581482201814651,0.8536195158958435,0.0,-0.1065263897180557,0.0,1026.1600341796875,23.1875,6.541112285756916e-20,1.2078131437301636,-1.988314735902101e+24,0.4699999988079071,-1.95632777563952e+37,
545.0,0.0,-0.5230516791343689,-1.898584008216858,-0.5663347840309143,-1.4822702407836914,1.3822851181030271,-0.3017193675041199,-0.1297735124826431,-0.0553184114396572,2.0667409896850586,0.0,0.0,0.0,0.0,0.0,0.0,0.0,0.0,0.0,0.5121920704841614,0.0415516197681427,-0.0568883270025253,0.8559722304344177,0.0,-0.1065263897180557,0.0,1026.1600341796875,23.1875,6.541112285756916e-20,1.2078131437301636,-1.988314735902101e+24,0.4699999988079071,-1.95632777563952e+37,
545.0,0.0,-0.478892832994461,-1.8523598909378047,-0.543948233127594,-1.4475303888320925,1.3327425718307495,-0.2912810444831848,-0.1269348859786987,-0.0546306334435939,2.075479507446289,0.0,0.0,0.0,0.0,0.0,0.0,0.0,0.0,0.0,0.5084457993507385,0.0407539382576942,-0.0556937493383884,0.8583194017410278,0.0,-0.1065263897180557,0.0,1026.1600341796875,23.1875,6.541112285756916e-20,1.2078131437301636,-1.988314735902101e+24,0.4699999988079071,-1.95632777563952e+37,
545.0,0.0,-0.4560739994049072,-1.8524439334869385,-0.5494223237037659,-1.4469616413116455,1.3251821994781494,-0.3025684356689453,-0.1239201873540878,-0.0538304634392261,2.084127426147461,0.0,0.0,0.0,0.0,0.0,0.0,0.0,0.0,0.0,0.5047259330749512,0.0398965328931808,-0.054416324943304,0.8606339693069458,0.0,-0.1065263897180557,0.0,1026.1600341796875,23.1875,6.541112285756916e-20,1.2078131437301636,-1.988314735902101e+24,0.4699999988079071,-1.95632777563952e+37,
545.0,0.0,-0.5423142313957214,-1.7249737977981567,-0.573092520236969,-1.2853975296020508,1.3505640029907229,-0.3489235043525696,-0.1213291734457016,-0.0534699112176895,2.092639446258545,0.0,0.0,0.0,0.0,0.0,0.0,0.0,0.0,0.0,0.5010610222816467,0.0390981584787368,-0.0534450337290763,0.8628701567649841,0.0,0.0,0.0,1026.1600341796875,23.1875,6.541112285756916e-20,1.2078131437301636,-1.988314735902101e+24,0.4699999988079071,-1.95632777563952e+37,
545.0,0.0,-0.4483676850795746,-1.6737966537475586,-0.5445461869239807,-1.2728756666183472,1.2527635097503662,-0.3308734595775604,-0.1185638010501861,-0.0529904179275035,2.101186752319336,0.0,0.0,0.0,0.0,0.0,0.0,0.0,0.0,0.0,0.4973688721656799,0.0382471494376659,-0.0523861795663833,0.8651063442230225,0.0,0.0,0.0,1026.1600341796875,23.1875,6.541112285756916e-20,1.2078131437301636,-1.988314735902101e+24,0.4699999988079071,-1.95632777563952e+37,
545.0,0.0,-0.5743658542633057,-1.7661869525909424,-0.5965586304664612,-1.282111883163452,1.4209030866622925,-0.3773029744625091,-0.1158222630620002,-0.0525468625128269,2.10951566696167,0.0,0.0,0.0,0.0,0.0,0.0,0.0,0.0,0.0,0.4937616288661957,0.0373836271464824,-0.0513609610497951,0.8672692775726318,0.0,0.0,0.0,1026.1600341796875,23.1875,6.541112285756916e-20,1.2078131437301636,-1.988314735902101e+24,0.4699999988079071,-1.95632777563952e+37,
545.0,0.0,-0.4337465167045593,-1.7114732265472412,-0.4522638618946075,-1.2789851427078247,1.275268793106079,-0.2442378848791122,-0.1132865473628044,-0.0515797585248947,2.1180787086486816,0.0,0.0,0.0,0.0,0.0,0.0,0.0,0.0,0.0,0.490032821893692,0.0367359705269336,-0.0501620136201381,0.8694791793823242,0.0,0.1065274477005004,0.0,1026.1474609375,23.1875,6.541112285756916e-20,1.2077983617782593,-1.988314735902101e+24,0.4699999988079071,-1.95632777563952e+37,
545.0,0.0,-0.5125307440757751,-1.6714421510696411,-0.5460701584815979,-1.2027782201766968,1.3367480039596558,-0.3478164672851562,-0.1106183230876922,-0.0512425191700458,2.1265206336975098,0.0,0.0,0.0,0.0,0.0,0.0,0.0,0.0,0.0,0.4863585829734802,0.0358647182583808,-0.0492140278220176,0.8716301918029785,0.0,0.1065274477005004,0.0,1026.1474609375,23.1875,6.541112285756916e-20,1.2077983617782593,-1.988314735902101e+24,0.4699999988079071,-1.95632777563952e+37,
545.0,0.0,-0.3438052833080292,-1.6569888591766355,-0.5453158020973206,-1.268282413482666,1.1955370903015137,-0.3511176705360412,-0.1077601984143257,-0.050730425864458,2.1346874237060547,0.0,0.0,0.0,0.0,0.0,0.0,0.0,0.0,0.0,0.482791930437088,0.034938558936119,-0.0481570027768611,0.873707115650177,0.0,0.1065274477005004,0.0,1026.1474609375,23.1875,6.541112285756916e-20,1.2077983617782593,-1.988314735902101e+24,0.4699999988079071,-1.95632777563952e+37,
545.0,0.0,-0.4592873454093933,-1.6842072010040283,-0.5451584458351135,-1.218394160270691,1.31719708442688,-0.3537667393684387,-0.105584941804409,-0.0499420389533042,2.142830848693848,0.0,0.0,0.0,0.0,0.0,0.0,0.0,0.0,0.0,0.4792205989360809,0.0343694053590297,-0.0471504852175712,0.8757483959197998,0.0,0.1065274477005004,0.0,1026.1474609375,23.1875,6.541112285756916e-20,1.2077983617782593,-1.988314735902101e+24,0.4699999988079071,-1.95632777563952e+37,
545.0,0.0,-0.5152184367179871,-1.5776325464248655,-0.5225782990455627,-1.083798885345459,1.3144593238830566,-0.3535400032997131,-0.0991352573037147,-0.0488898120820522,2.15087366104126,0.0,0.0,0.0,0.0,0.0,0.0,0.0,0.0,0.0,0.4756858944892883,0.0319744274020195,-0.0450232215225696,0.8778755068778992,0.0,0.0206848587840795,0.0,1026.14501953125,23.1875,6.541112285756916e-20,1.20779550075531,-1.988314735902101e+24,0.4699999988079071,-1.95632777563952e+37,
545.0,0.0,-0.4311838746070862,-1.6274561882019043,-0.5132971405982971,-1.1595807075500488,1.279413104057312,-0.3412214517593384,-0.0973352938890457,-0.0482304096221923,2.1587700843811035,0.0,0.0,0.0,0.0,0.0,0.0,0.0,0.0,0.0,0.4722073376178741,0.0315148197114467,-0.0441834740340709,0.8798106908798218,0.0,0.0206848587840795,0.0,1026.14501953125,23.1875,6.541112285756916e-20,1.20779550075531,-1.988314735902101e+24,0.4699999988079071,-1.95632777563952e+37,
545.0,0.0,-0.5075820088386536,-1.5677074193954468,-0.460330992937088,-1.0502208471298218,1.3158200979232788,-0.3047239184379577,-0.0905341058969497,-0.0475153215229511,2.166590929031372,0.0,0.0,0.0,0.0,0.0,0.0,0.0,0.0,0.0,0.4687553644180298,0.0288528837263584,-0.0421573109924793,0.8818449974060059,0.0,0.0206848587840795,0.0,1026.14501953125,23.1875,6.541112285756916e-20,1.20779550075531,-1.988314735902101e+24,0.4699999988079071,-1.95632777563952e+37,
545.0,0.0,-0.4249966442584991,-1.504629611968994,-0.3887243568897247,-1.0280227661132812,1.216686487197876,-0.2417451292276382,-0.0889937207102775,-0.0469117015600204,2.174476146697998,0.0,0.0,0.0,0.0,0.0,0.0,0.0,0.0,0.0,0.4652662873268127,0.0284779034554958,-0.0414196103811264,0.8837379217147827,0.0,0.0206848587840795,0.0,1026.14501953125,23.1875,6.541112285756916e-20,1.20779550075531,-1.988314735902101e+24,0.4699999988079071,-1.95632777563952e+37,
545.0,0.0,-0.4205772280693054,-1.5279825925827026,-0.5269365906715393,-1.0512707233428955,1.2408021688461304,-0.3800979256629944,-0.0869611054658889,-0.0464313104748725,2.18255352973938,0.0,0.0,0.0,0.0,0.0,0.0,0.0,0.0,0.0,0.4616861045360565,0.0278547946363687,-0.0406241565942764,0.8856703042984009,0.0,-0.2120174914598465,0.0,1026.1700439453125,23.1875,6.541112285756916e-20,1.207824945449829,-1.988314735902101e+24,0.4699999988079071,-1.95632777563952e+37,
545.0,0.0,-0.4291278421878814,-1.5240390300750732,-0.5610933899879456,-1.0358952283859253,1.2546294927597046,-0.4176755845546722,-0.0853847488760948,-0.0456339865922927,2.190293312072754,0.0,0.0,0.0,0.0,0.0,0.0,0.0,0.0,0.0,0.458243578672409,0.0274942684918642,-0.0398024581372737,0.8875048160552979,0.0,-0.2120174914598465,0.0,1026.1700439453125,23.1875,6.541112285756916e-20,1.207824945449829,-1.988314735902101e+24,0.4699999988079071,-1.95632777563952e+37,
545.0,0.0,-0.4123054146766662,-1.5091124773025513,-0.479348212480545,-1.022214651107788,1.2314375638961792,-0.3402750790119171,-0.0839823186397552,-0.0447219461202621,2.1934196949005127,0.0,0.0,0.0,0.0,0.0,0.0,0.0,0.0,0.0,0.4568427503108978,0.0271413158625364,-0.039035215973854,0.8882715702056885,0.0,-0.2120174914598465,0.0,1026.1700439453125,23.1875,6.541112285756916e-20,1.207824945449829,-1.988314735902101e+24,0.4699999988079071,-1.95632777563952e+37,
545.0,0.0,-0.3477261960506439,-1.5476837158203125,-0.5184908509254456,-1.0842833518981934,1.211028218269348,-0.377844750881195,-0.0822508111596107,-0.0440945550799369,2.2012009620666504,0.0,0.0,0.0,0.0,0.0,0.0,0.0,0.0,0.0,0.4533739984035492,0.0266638994216918,-0.0382590182125568,0.8900951147079468,0.0,-0.2120174914598465,0.0,1026.1700439453125,23.1875,6.541112285756916e-20,1.207824945449829,-1.988314735902101e+24,0.4699999988079071,-1.95632777563952e+37,
545.0,0.0,-0.4406028091907501,-1.5329669713974,-0.5290670990943909,-1.0140386819839478,1.2809189558029177,-0.3936469852924347,-0.0809371322393417,-0.0431592762470245,2.204474925994873,0.0,0.0,0.0,0.0,0.0,0.0,0.0,0.0,0.0,0.451903223991394,0.0263521391898393,-0.0375029258430004,0.8908841609954834,0.0,0.12669537961483,0.0,1026.155029296875,23.1875,6.541112285756916e-20,1.207807183265686,-1.988314735902101e+24,0.4699999988079071,-1.95632777563952e+37,
545.0,0.0,-0.4072491824626922,-1.518438458442688,-0.4695940315723419,-1.0072885751724243,1.250400424003601,-0.3374187052249908,-0.079509824514389,-0.0429691858589649,2.2121357917785645,0.0,0.0,0.0,0.0,0.0,0.0,0.0,0.0,0.0,0.4484840631484985,0.0259006433188915,-0.0369979068636894,0.8926446437835693,0.0,0.12669537961483,0.0,1026.155029296875,23.1875,6.541112285756916e-20,1.207807183265686,-1.988314735902101e+24,0.4699999988079071,-1.95632777563952e+37,
545.0,0.0,-0.4167708158493042,-1.4237788915634155,-0.4517870247364044,-0.9139122366905212,1.2072616815567017,-0.3349639177322387,-0.0736208111047744,-0.0422068536281585,2.2192392349243164,0.0,0.0,0.0,0.0,0.0,0.0,0.0,0.0,0.0,0.4452954232692718,0.0235661752521991,-0.0352578908205032,0.8943743705749512,0.0,0.12669537961483,0.0,1026.155029296875,23.1875,6.541112285756916e-20,1.207807183265686,-1.988314735902101e+24,0.4699999988079071,-1.95632777563952e+37,
545.0,0.0,-0.4200608730316162,-1.4874778985977173,-0.5133848786354065,-0.957175612449646,1.2575198411941528,-0.3937273919582367,-0.0721702352166175,-0.0414675921201705,2.226757526397705,0.0,0.0,0.0,0.0,0.0,0.0,0.0,0.0,0.0,0.4419195652008056,0.0232114996761083,-0.0345183089375495,0.8960852026939392,0.0,0.12669537961483,0.0,1026.155029296875,23.1875,6.541112285756916e-20,1.207807183265686,-1.988314735902101e+24,0.4699999988079071,-1.95632777563952e+37,
545.0,0.0,-0.4156986773014068,-1.420624852180481,-0.3770113289356231,-0.8880213499069214,1.2140507698059082,-0.2656679451465606,-0.0709692537784576,-0.040687408298254,2.234079599380493,0.0,0.0,0.0,0.0,0.0,0.0,0.0,0.0,0.0,0.4386253356933594,0.0229693632572889,-0.033820305019617,0.8977351784706116,0.0,0.0,0.0,1026.155029296875,23.1875,6.541112285756916e-20,1.207807183265686,-1.988314735902101e+24,0.4699999988079071,-1.95632777563952e+37,
545.0,0.0,-0.4423812627792358,-1.458431363105774,-0.4073410332202911,-0.899772047996521,1.2616336345672607,-0.295468270778656,-0.0699673369526863,-0.0396757088601589,2.236797571182251,0.0,0.0,0.0,0.0,0.0,0.0,0.0,0.0,0.0,0.4373920261859894,0.0227862112224102,-0.0331161469221115,0.8983676433563232,0.0,0.0,0.0,1026.155029296875,23.1875,6.541112285756916e-20,1.207807183265686,-1.988314735902101e+24,0.4699999988079071,-1.95632777563952e+37,
545.0,0.0,-0.3529623448848724,-1.4379489421844482,-0.4201946556568146,-0.9308685660362244,1.1856120824813845,-0.3108254075050354,-0.0687413439154625,-0.0392381064593791,2.2440085411071777,0.0,0.0,0.0,0.0,0.0,0.0,0.0,0.0,0.0,0.4341434836387634,0.0224484167993068,-0.0325714871287345,0.899970293045044,0.0,0.0,0.0,1026.155029296875,23.1875,6.541112285756916e-20,1.207807183265686,-1.988314735902101e+24,0.4699999988079071,-1.95632777563952e+37,
545.0,0.0,-0.4396122694015503,-1.4433505535125732,-0.4324789345264435,-0.8724628686904907,1.2632050514221191,-0.3265576362609863,-0.0671712532639503,-0.0383581779897213,2.25122618675232,0.0,0.0,0.0,0.0,0.0,0.0,0.0,0.0,0.0,0.4308807551860809,0.0220471806824207,-0.0317562781274318,0.9015759825706482,0.0,0.0,0.0,1026.155029296875,23.1875,6.541112285756916e-20,1.207807183265686,-1.988314735902101e+24,0.4699999988079071,-1.95632777563952e+37,
545.0,0.0,-0.4153898656368255,-1.3831948041915894,-0.5135508179664612,-0.8371967077255249,1.2154632806777954,-0.4137913286685943,-0.0657656043767929,-0.0378760583698749,2.2584445476531982,0.0,0.0,0.0,0.0,0.0,0.0,0.0,0.0,0.0,0.4276165962219238,0.0216295942664146,-0.0311590451747179,0.9031595587730408,0.0,-0.0630885735154151,0.0,1026.1624755859375,23.1875,6.541112285756916e-20,1.2078160047531128,-1.988314735902101e+24,0.4699999988079071,-1.95632777563952e+37,
545.0,0.0,-0.4126838743686676,-1.272860407829285,-0.4396639168262481,-0.740688681602478,1.1456842422485352,-0.3500593304634094,-0.0647043362259864,-0.0373434647917747,2.265432834625244,0.0,0.0,0.0,0.0,0.0,0.0,0.0,0.0,0.0,0.4244507551193237,0.0213710460811853,-0.0306177269667387,0.90467631816864,0.0,-0.0630885735154151,0.0,1026.1624755859375,23.1875,6.541112285756916e-20,1.2078160047531128,-1.988314735902101e+24,0.4699999988079071,-1.95632777563952e+37,
545.0,0.0,-0.3775485754013061,-1.3961181640625,-0.4551849663257599,-0.8497819900512695,1.2034631967544556,-0.358319491147995,-0.063379980623722,-0.03664106503129,2.272459030151367,0.0,0.0,0.0,0.0,0.0,0.0,0.0,0.0,0.0,0.4212603569030761,0.0210260339081287,-0.029945969581604,0.90619695186615,0.0,-0.0630885735154151,0.0,1026.1624755859375,23.1875,6.541112285756916e-20,1.2078160047531128,-1.988314735902101e+24,0.4699999988079071,-1.95632777563952e+37,
545.0,0.0,-0.3467194139957428,-1.3227165937423706,-0.4787321388721466,-0.8085880279541016,1.138713240623474,-0.3853082656860351,-0.0665111616253852,-0.0358983539044857,2.279548406600952,0.0,0.0,0.0,0.0,0.0,0.0,0.0,0.0,0.0,0.4180419743061065,0.0227090995758771,-0.030187003314495,0.9076375961303712,0.0,-0.0630885735154151,0.0,1026.1624755859375,23.1875,6.541112285756916e-20,1.2078160047531128,-1.988314735902101e+24,0.4699999988079071,-1.95632777563952e+37,
545.0,0.0,-0.4579626619815826,-1.3533021211624146,-0.4270296394824981,-0.7457414269447327,1.2459955215454102,-0.3388805687427521,-0.0608133673667907,-0.0351100452244281,2.286196708679199,0.0,0.0,0.0,0.0,0.0,0.0,0.0,0.0,0.0,0.4150055348873138,0.0203816723078489,-0.028573615476489,0.90913724899292,0.0,-0.1696143299341201,0.0,1026.1824951171875,23.25,6.541112285756916e-20,1.2075848579406738,-1.988314735902101e+24,0.4699999988079071,-1.95632777563952e+37,
545.0,0.0,-0.3972263038158417,-1.2897998094558716,-0.3937931358814239,-0.7276880145072937,1.161964774131775,-0.3110005855560303,-0.0597005151212215,-0.0345886945724487,2.292795896530152,0.0,0.0,0.0,0.0,0.0,0.0,0.0,0.0,0.0,0.4119963049888611,0.0200763624161481,-0.0280401408672332,0.9105282425880432,0.0,-0.1696143299341201,0.0,1026.1824951171875,23.25,6.541112285756916e-20,1.2075848579406738,-1.988314735902101e+24,0.4699999988079071,-1.95632777563952e+37,
545.0,0.0,-0.3473120927810669,-1.3493380546569824,-0.4333286583423614,-0.7994498014450073,1.1699931621551514,-0.34795743227005,-0.0582292824983596,-0.0339377857744693,2.2993526458740234,0.0,0.0,0.0,0.0,0.0,0.0,0.0,0.0,0.0,0.4090000092983246,0.0196301750838756,-0.027377201244235,0.911907970905304,0.0,-0.1696143299341201,0.0,1026.1824951171875,23.25,6.541112285756916e-20,1.2075848579406738,-1.988314735902101e+24,0.4699999988079071,-1.95632777563952e+37,
545.0,0.0,-0.3861545324325561,-1.3154724836349487,-0.4868240654468536,-0.7432982921600342,1.1827369928359983,-0.4064330756664276,-0.0568908564746379,-0.0330352187156677,2.305903434753418,0.0,0.0,0.0,0.0,0.0,0.0,0.0,0.0,0.0,0.4059997797012329,0.0192915331572294,-0.026629501953721,0.91327702999115,0.0,0.2746526598930359,0.0,1026.1500244140625,23.1875,6.541112285756916e-20,1.207801342010498,-1.988314735902101e+24,0.4699999988079071,-1.95632777563952e+37,
545.0,0.0,-0.4445556402206421,-1.2874068021774292,-0.4975357353687286,-0.6758853197097778,1.211611270904541,-0.4215821921825409,-0.0558692067861557,-0.0323150008916854,2.3123254776000977,0.0,0.0,0.0,0.0,0.0,0.0,0.0,0.0,0.0,0.4030563235282898,0.019054701551795,-0.0260326024144887,0.9146020412445068,0.0,0.2746526598930359,0.0,1026.1500244140625,23.1875,6.541112285756916e-20,1.207801342010498,-1.988314735902101e+24,0.4699999988079071,-1.95632777563952e+37,
